index,fips,county,state,lat,long,population
1172,01001,Autauga,Alabama,32.53952745,-86.64408227,55869.0
1173,01003,Baldwin,Alabama,30.72774991,-87.72207058,223234.0
1174,01005,Barbour,Alabama,31.868263,-85.3871286,24686.0
1175,01007,Bibb,Alabama,32.99642064,-87.1251146,22394.0
1176,01009,Blount,Alabama,33.98210918,-86.56790593,57826.0
1177,01011,Bullock,Alabama,32.10030533,-85.71265535,10101.0
1178,01013,Butler,Alabama,31.75300095,-86.68057478,19448.0
1179,01015,Calhoun,Alabama,33.77483727,-85.82630386,113605.0
1180,01017,Chambers,Alabama,32.91360079,-85.39072749,33254.0
1181,01019,Cherokee,Alabama,34.17805983,-85.60638968,26196.0
1182,01021,Chilton,Alabama,32.85044126,-86.7173256,44428.0
1183,01023,Choctaw,Alabama,32.02227341,-88.2656443,12589.0
1184,01025,Clarke,Alabama,31.68099859,-87.83548597,23622.0
1185,01027,Clay,Alabama,33.26984193,-85.85836077,13235.0
1186,01029,Cleburne,Alabama,33.67679204,-85.52005899,14910.0
1187,01031,Coffee,Alabama,31.39932826,-85.98901039,52342.0
1188,01033,Colbert,Alabama,34.69847452,-87.80168544,55241.0
1189,01035,Conecuh,Alabama,31.43401703,-86.99320044,12067.0
1190,01037,Coosa,Alabama,32.93690146,-86.24847739,10663.0
1191,01039,Covington,Alabama,31.2477854,-86.45050893,37049.0
1192,01041,Crenshaw,Alabama,31.72941803,-86.31593104,13772.0
1193,01043,Cullman,Alabama,34.13020303,-86.86888037,83768.0
1194,01045,Dale,Alabama,31.43037123,-85.61095742,49172.0
1195,01047,Dallas,Alabama,32.32688101,-87.1086671,37196.0
1196,01049,DeKalb,Alabama,34.45946862,-85.80782906,71513.0
1197,01051,Elmore,Alabama,32.59785413,-86.14415284,81209.0
1198,01053,Escambia,Alabama,31.1256789,-87.15918694,36633.0
1199,01055,Etowah,Alabama,34.04567266,-86.04051873,102268.0
1200,01057,Fayette,Alabama,33.72076938,-87.73886638,16302.0
1201,01059,Franklin,Alabama,34.44235334,-87.84289505,31362.0
1202,01061,Geneva,Alabama,31.09389027,-85.83572839,26271.0
1203,01063,Greene,Alabama,32.85504247,-87.95684022,8111.0
1204,01065,Hale,Alabama,32.76039258,-87.63284988,14651.0
1205,01067,Henry,Alabama,31.51148016,-85.24267944,17205.0
1206,01069,Houston,Alabama,31.15197924,-85.29939599,105882.0
1207,01071,Jackson,Alabama,34.78144169,-85.99750489,51626.0
1208,01073,Jefferson,Alabama,33.55554728,-86.895063,658573.0
1209,01075,Lamar,Alabama,33.77995024,-88.09668032,13805.0
1210,01077,Lauderdale,Alabama,34.90171875,-87.65624729,92729.0
1211,01079,Lawrence,Alabama,34.52041498,-87.31069453,32924.0
1212,01081,Lee,Alabama,32.60154883,-85.35132246,164542.0
1213,01083,Limestone,Alabama,34.81185586,-86.98310072,98915.0
1214,01085,Lowndes,Alabama,32.1597283,-86.65158371,9726.0
1215,01087,Macon,Alabama,32.38759944,-85.69267724,18068.0
1216,01089,Madison,Alabama,34.76327133,-86.55069633,372909.0
1217,01091,Marengo,Alabama,32.24767634,-87.78796182,18863.0
1218,01093,Marion,Alabama,34.13697363,-87.88704173,29709.0
1219,01095,Marshall,Alabama,34.36975964,-86.30486727,96774.0
1220,01097,Mobile,Alabama,30.78472347,-88.20842409,413210.0
1221,01099,Monroe,Alabama,31.56729412,-87.36995001,20733.0
1222,01101,Montgomery,Alabama,32.2206831,-86.20969272,226486.0
1223,01103,Morgan,Alabama,34.45500589,-86.85475946,119679.0
1224,01105,Perry,Alabama,32.64048341,-87.29770589,8923.0
1225,01107,Pickens,Alabama,33.28094866,-88.08818103,19930.0
1226,01109,Pike,Alabama,31.80396383,-85.9408295,33114.0
1227,01111,Randolph,Alabama,33.29526734,-85.45708831,22722.0
1228,01113,Russell,Alabama,32.28725256,-85.18415324,57961.0
1229,01115,St. Clair,Alabama,33.71902176,-86.31029372,89512.0
1230,01117,Shelby,Alabama,33.26879845,-86.66232561,217702.0
1231,01119,Sumter,Alabama,32.59117397,-88.19916205,12427.0
1232,01121,Talladega,Alabama,33.37823223,-86.16886178,79978.0
1233,01123,Tallapoosa,Alabama,32.86698258,-85.79833053,40367.0
1234,01125,Tuscaloosa,Alabama,33.28726072,-87.52556818,209355.0
1235,01127,Walker,Alabama,33.80270512,-87.30027177,63521.0
1236,01129,Washington,Alabama,31.4092794,-88.20689944,16326.0
1237,01131,Wilcox,Alabama,31.98773215,-87.30891118,10373.0
1238,01133,Winston,Alabama,34.15030532,-87.37325922,23629.0
1270,04001,Apache,Arizona,35.39465006,-109.4892383,71887.0
1271,04003,Cochise,Arizona,31.87934684,-109.7516088,125922.0
1272,04005,Coconino,Arizona,35.83883429,-111.7707178,143476.0
1273,04007,Gila,Arizona,33.80190085,-110.8132779,54018.0
1274,04009,Graham,Arizona,32.93166885,-109.8882178,38837.0
1275,04011,Greenlee,Arizona,33.21498827,-109.2405279,9498.0
1276,04012,La Paz,Arizona,33.72854224,-113.9810029,21108.0
1277,04013,Maricopa,Arizona,33.34835867,-112.4918154,4485414.0
1278,04015,Mohave,Arizona,35.70471703,-113.7577902,212181.0
1279,04017,Navajo,Arizona,35.3997715,-110.3218983,110924.0
1280,04019,Pima,Arizona,32.0971334,-111.7890033,1047279.0
1281,04021,Pinal,Arizona,32.90525627,-111.3449483,462789.0
1282,04023,Santa Cruz,Arizona,31.52508998,-110.8479088,46498.0
1283,04025,Yavapai,Arizona,34.59933926,-112.5538588,235099.0
1284,04027,Yuma,Arizona,32.76895712,-113.9066674,213787.0
1285,05001,Arkansas,Arkansas,34.29145151,-91.37277296,17486.0
1286,05003,Ashley,Arkansas,33.19153461,-91.7698471,19657.0
1287,05005,Baxter,Arkansas,36.28784385,-92.33782872,41932.0
1288,05007,Benton,Arkansas,36.33644656,-94.25680817,279141.0
1289,05009,Boone,Arkansas,36.3084504,-93.09374925,37432.0
1290,05011,Bradley,Arkansas,33.46755808,-92.15980837,10763.0
1291,05013,Calhoun,Arkansas,33.55598792,-92.49974403,5189.0
1292,05015,Carroll,Arkansas,36.3403856,-93.54270261,28380.0
1293,05017,Chicot,Arkansas,33.26458973,-91.29539209,10118.0
1294,05019,Clark,Arkansas,34.04613432,-93.17484713,22320.0
1295,05021,Clay,Arkansas,36.36826212,-90.4148172,14551.0
1296,05023,Cleburne,Arkansas,35.53864922,-92.02640019,24919.0
1297,05025,Cleveland,Arkansas,33.89723187,-92.18537045,7956.0
1298,05027,Columbia,Arkansas,33.21230701,-93.22642793,23457.0
1299,05029,Conway,Arkansas,35.26205537,-92.70506566,20846.0
1300,05031,Craighead,Arkansas,35.83018283,-90.63235729,110332.0
1301,05033,Crawford,Arkansas,35.58928601,-94.2446814,63257.0
1302,05035,Crittenden,Arkansas,35.21247318,-90.30839406,47955.0
1303,05037,Cross,Arkansas,35.29631396,-90.77185818,16419.0
1304,05039,Dallas,Arkansas,33.97042763,-92.65167437,7009.0
1305,05041,Desha,Arkansas,33.83011025,-91.25500948,11361.0
1306,05043,Drew,Arkansas,33.59035001,-91.71777921,18219.0
1307,05045,Faulkner,Arkansas,35.14719007,-92.33717519,126007.0
1308,05047,Franklin,Arkansas,35.51202821,-93.89299569,17715.0
1309,05049,Fulton,Arkansas,36.38177105,-91.81729127,12477.0
1310,05051,Garland,Arkansas,34.57692074,-93.14921604,99386.0
1311,05053,Grant,Arkansas,34.29017991,-92.42320562,18265.0
1312,05055,Greene,Arkansas,36.1173546,-90.55832668,45325.0
1313,05057,Hempstead,Arkansas,33.73325583,-93.66935133,21532.0
1314,05059,Hot Spring,Arkansas,34.31709259,-92.95396325,33771.0
1315,05061,Howard,Arkansas,34.09007427,-93.9934871,13202.0
1316,05063,Independence,Arkansas,35.74242707,-91.57001641,37825.0
1317,05065,Izard,Arkansas,36.09604046,-91.90847954,13629.0
1318,05067,Jackson,Arkansas,35.59802983,-91.21494602,16719.0
1319,05069,Jefferson,Arkansas,34.26767081,-91.92619839,66824.0
1320,05071,Johnson,Arkansas,35.56759135,-93.46036368,26578.0
1321,05073,Lafayette,Arkansas,33.24116713,-93.60677071,6624.0
1322,05075,Lawrence,Arkansas,36.04188196,-91.10867198,16406.0
1323,05077,Lee,Arkansas,34.78498904,-90.78383866,8857.0
1324,05079,Lincoln,Arkansas,33.95317155,-91.74002806,13024.0
1325,05081,Little River,Arkansas,33.70375665,-94.23468591,12259.0
1326,05083,Logan,Arkansas,35.21413234,-93.71951016,21466.0
1327,05085,Lonoke,Arkansas,34.75392199,-91.88742357,73309.0
1328,05087,Madison,Arkansas,36.01038185,-93.72524943,16576.0
1329,05089,Marion,Arkansas,36.26844485,-92.68451899,16694.0
1330,05091,Miller,Arkansas,33.31403423,-93.89285258,43257.0
1331,05093,Mississippi,Arkansas,35.76271485,-90.0519437,40651.0
1332,05095,Monroe,Arkansas,34.6815935,-91.20540287,6701.0
1333,05097,Montgomery,Arkansas,34.53704874,-93.65824478,8986.0
1334,05099,Nevada,Arkansas,33.66340119,-93.30632432,8252.0
1335,05101,Newton,Arkansas,35.91947491,-93.21612969,7753.0
1336,05103,Ouachita,Arkansas,33.58839816,-92.87795984,23382.0
1337,05105,Perry,Arkansas,34.9459153,-92.94372564,10455.0
1338,05107,Phillips,Arkansas,34.43268455,-90.84800154,17782.0
1339,05109,Pike,Arkansas,34.16250414,-93.65789349,10718.0
1340,05111,Poinsett,Arkansas,35.57433534,-90.66268713,23528.0
1341,05113,Polk,Arkansas,34.48254879,-94.22728802,19964.0
1342,05115,Pope,Arkansas,35.44871474,-93.03212219,64072.0
1343,05117,Prairie,Arkansas,34.83624419,-91.55162157,8062.0
1344,05119,Pulaski,Arkansas,34.77054088,-92.31355101,391911.0
1345,05121,Randolph,Arkansas,36.3415714,-91.02455531,17958.0
1346,05123,St. Francis,Arkansas,35.02201976,-90.74828138,24994.0
1347,05125,Saline,Arkansas,34.64916145,-92.67583224,122437.0
1348,05127,Scott,Arkansas,34.85588887,-94.0632176,10281.0
1349,05129,Searcy,Arkansas,35.9109364,-92.69936482,7881.0
1350,05131,Sebastian,Arkansas,35.19605503,-94.27162713,127827.0
1351,05133,Sevier,Arkansas,33.99780401,-94.2424869,17007.0
1352,05135,Sharp,Arkansas,36.16258158,-91.47819342,17442.0
1353,05137,Stone,Arkansas,35.86251946,-92.15684085,12506.0
1354,05139,Union,Arkansas,33.16887091,-92.59746952,38682.0
1355,05141,Van Buren,Arkansas,35.58095779,-92.51295036,16545.0
1356,05143,Washington,Arkansas,35.976844,-94.21800746,239187.0
1357,05145,White,Arkansas,35.25688493,-91.74908296,78753.0
1358,05147,Woodruff,Arkansas,35.18902527,-91.2439489,6320.0
1359,05149,Yell,Arkansas,35.00292371,-93.41171338,21341.0
1360,06001,Alameda,California,37.64629437,-121.8929271,1671329.0
1361,06003,Alpine,California,38.59678594,-119.8223594,1129.0
1362,06005,Amador,California,38.44583082,-120.65696,39752.0
1363,06007,Butte,California,39.66727762,-121.6005252,219186.0
1364,06009,Calaveras,California,38.20537103,-120.552913,45905.0
1365,06011,Colusa,California,39.17881957,-122.2331726,21547.0
1366,06013,Contra Costa,California,37.91923498,-121.9289527,1153526.0
1367,06015,Del Norte,California,41.74228275,-123.8974063,27812.0
1368,06017,El Dorado,California,38.77965956,-120.5233166,192843.0
1369,06019,Fresno,California,36.75733899,-119.6466953,999101.0
1370,06021,Glenn,California,39.59875897,-122.3938452,28393.0
1371,06023,Humboldt,California,40.69923009,-123.876044,135558.0
1372,06025,Imperial,California,33.0393082,-115.3669042,181215.0
1373,06027,Inyo,California,36.51112084,-117.4111978,18039.0
1374,06029,Kern,California,35.34329425,-118.7277796,900202.0
1375,06031,Kings,California,36.07409056,-119.8159973,152940.0
1376,06033,Lake,California,39.10124298,-122.7536244,64386.0
1377,06035,Lassen,California,40.67311306,-120.5935099,30573.0
1378,06037,Los Angeles,California,34.30828379,-118.2282411,10039107.0
1379,06039,Madera,California,37.21513971,-119.7665589,157327.0
1380,06041,Marin,California,38.07122463,-122.7210631,258826.0
1381,06043,Mariposa,California,37.57978556,-119.9073334,17203.0
1382,06045,Mendocino,California,39.4381191,-123.3911313,86749.0
1383,06047,Merced,California,37.18922369,-120.7209035,277680.0
1384,06049,Modoc,California,41.58965602,-120.7244817,8841.0
1385,06051,Mono,California,37.93899289,-118.8872409,14444.0
1386,06053,Monterey,California,36.21862405,-121.2413397,434061.0
1387,06055,Napa,California,38.50735751,-122.332839,137744.0
1388,06057,Nevada,California,39.30394768,-120.7627281,99755.0
1389,06059,Orange,California,33.70147516,-117.7645998,3175692.0
1390,06061,Placer,California,39.06167234,-120.7240569,398329.0
1391,06063,Plumas,California,40.00355989,-120.8395236,18807.0
1392,06065,Riverside,California,33.74314981,-115.9933578,2470546.0
1393,06067,Sacramento,California,38.45106826,-121.3425374,1552058.0
1394,06069,San Benito,California,36.60308176,-121.069975,62808.0
1395,06071,San Bernardino,California,34.84060306,-116.1774685,2180085.0
1396,06073,San Diego,California,33.03484597,-116.7365326,3338330.0
1397,06075,San Francisco,California,37.75215114,-122.4385672,881549.0
1398,06077,San Joaquin,California,37.93433732,-121.2730061,762148.0
1399,06079,San Luis Obispo,California,35.38822029,-120.4039028,283111.0
1400,06081,San Mateo,California,37.4228808,-122.3275546,766573.0
1401,06083,Santa Barbara,California,34.65329488,-120.0188492,446499.0
1402,06085,Santa Clara,California,37.23104908,-121.6970462,1927852.0
1403,06087,Santa Cruz,California,37.05580291,-122.0066524,273213.0
1404,06089,Shasta,California,40.76391419,-122.0396884,180080.0
1405,06091,Sierra,California,39.57713498,-120.5200701,3005.0
1406,06093,Siskiyou,California,41.59198861,-122.5407434,43539.0
1407,06095,Solano,California,38.26827353,-121.9357113,447643.0
1408,06097,Sonoma,California,38.52746429,-122.8862506,494336.0
1409,06099,Stanislaus,California,37.55862499,-120.9970722,550660.0
1410,06101,Sutter,California,39.03417539,-121.6945899,96971.0
1411,06103,Tehama,California,40.12570935,-122.2370171,65084.0
1412,06105,Trinity,California,40.6491767,-123.114713,12285.0
1413,06107,Tulare,California,36.22026558,-118.8020203,466195.0
1414,06109,Tuolumne,California,38.02644018,-119.9525093,54478.0
1415,06111,Ventura,California,34.44465746,-119.0910613,846006.0
1416,06113,Yolo,California,38.68278902,-121.9018288,220500.0
1417,06115,Yuba,California,39.26255932,-121.3535644,78668.0
1418,08001,Adams,Colorado,39.87432092,-104.3362578,517421.0
1419,08003,Alamosa,Colorado,37.57250606,-105.7885451,16233.0
1420,08005,Arapahoe,Colorado,39.64977461,-104.3353617,656590.0
1421,08007,Archuleta,Colorado,37.19474156,-107.0476867,14029.0
1422,08009,Baca,Colorado,37.31940883,-102.5603223,3581.0
1423,08011,Bent,Colorado,37.95474293,-103.0720195,5577.0
1424,08013,Boulder,Colorado,40.09313619,-105.3546767,326196.0
1425,08014,Broomfield,Colorado,39.95998787,-105.0566324,70465.0
1426,08015,Chaffee,Colorado,38.74745778,-106.1926573,20356.0
1427,08017,Cheyenne,Colorado,38.82777431,-102.6032558,1831.0
1428,08019,Clear Creek,Colorado,39.68864463,-105.6463118,9700.0
1429,08021,Conejos,Colorado,37.201606,-106.1917488,8205.0
1430,08023,Costilla,Colorado,37.27732493,-105.4276548,3887.0
1431,08025,Crowley,Colorado,38.32608609,-103.7844965,6061.0
1432,08027,Custer,Colorado,38.10883162,-105.3683478,5068.0
1433,08029,Delta,Colorado,38.86246243,-107.8631342,31162.0
1434,08031,Denver,Colorado,39.76018276,-104.8725695,727211.0
1435,08033,Dolores,Colorado,37.75208676,-108.5211585,2055.0
1436,08035,Douglas,Colorado,39.33133796,-104.930001,351154.0
1437,08037,Eagle,Colorado,39.62754308,-106.6933637,55127.0
1438,08039,Elbert,Colorado,39.28656773,-104.1358721,26729.0
1439,08041,El Paso,Colorado,38.83240149,-104.5251411,720403.0
1440,08043,Fremont,Colorado,38.47362326,-105.4399667,47839.0
1441,08045,Garfield,Colorado,39.59921777,-107.902708,60061.0
1442,08047,Gilpin,Colorado,39.85646523,-105.5252597,6243.0
1443,08049,Grand,Colorado,40.10603347,-106.1178042,15734.0
1444,08051,Gunnison,Colorado,38.66611652,-107.0320729,17462.0
1445,08053,Hinsdale,Colorado,37.82247444,-107.3004345,820.0
1446,08055,Huerfano,Colorado,37.68473101,-104.9612585,6897.0
1447,08057,Jackson,Colorado,40.6659387,-106.3408905,1392.0
1448,08059,Jefferson,Colorado,39.58635604,-105.2517692,582881.0
1449,08061,Kiowa,Colorado,38.43260896,-102.7392145,1406.0
1450,08063,Kit Carson,Colorado,39.30497777,-102.6022199,7097.0
1451,08065,Lake,Colorado,39.20278823,-106.3555697,8127.0
1452,08067,La Plata,Colorado,37.28632032,-107.8429014,56221.0
1453,08069,Larimer,Colorado,40.66671597,-105.4625784,356899.0
1454,08071,Las Animas,Colorado,37.3153406,-104.0376458,14506.0
1455,08073,Lincoln,Colorado,38.98749519,-103.5136649,5701.0
1456,08075,Logan,Colorado,40.7249637,-103.110817,22409.0
1457,08077,Mesa,Colorado,39.01787888,-108.469799,154210.0
1458,08079,Mineral,Colorado,37.66954283,-106.9281698,769.0
1459,08081,Moffat,Colorado,40.61810999,-108.2070876,13283.0
1460,08083,Montezuma,Colorado,37.33859579,-108.5958857,26183.0
1461,08085,Montrose,Colorado,38.40214114,-108.2639022,42758.0
1462,08087,Morgan,Colorado,40.2627981,-103.8093302,29068.0
1463,08089,Otero,Colorado,37.9014485,-103.7173385,18278.0
1464,08091,Ouray,Colorado,38.14717457,-107.7675136,4952.0
1465,08093,Park,Colorado,39.120926,-105.7182065,18845.0
1466,08095,Phillips,Colorado,40.59414277,-102.3577703,4265.0
1467,08097,Pitkin,Colorado,39.21720112,-106.9310027,17767.0
1468,08099,Prowers,Colorado,37.95544985,-102.3926052,12172.0
1469,08101,Pueblo,Colorado,38.17359144,-104.5127437,168424.0
1470,08103,Rio Blanco,Colorado,39.97913541,-108.2179009,6324.0
1471,08105,Rio Grande,Colorado,37.5836865,-106.3847838,11267.0
1472,08107,Routt,Colorado,40.48596505,-106.9905548,25638.0
1473,08109,Saguache,Colorado,38.08054629,-106.282466,6824.0
1474,08111,San Juan,Colorado,37.76248981,-107.6763289,728.0
1475,08113,San Miguel,Colorado,38.00450883,-108.4020725,8179.0
1476,08115,Sedgwick,Colorado,40.87595412,-102.3519227,2248.0
1477,08117,Summit,Colorado,39.63803232,-106.1150762,31011.0
1478,08119,Teller,Colorado,38.88133511,-105.1614893,25388.0
1479,08121,Washington,Colorado,39.97015535,-103.202587,4908.0
1480,08123,Weld,Colorado,40.55499405,-104.3929621,324492.0
1481,08125,Yuma,Colorado,40.00346839,-102.4258673,10019.0
1482,09001,Fairfield,Connecticut,41.26809896,-73.3881171,943332.0
1483,09003,Hartford,Connecticut,41.80283011,-72.73103891,891720.0
1484,09005,Litchfield,Connecticut,41.7937534,-73.2451475,180333.0
1485,09007,Middlesex,Connecticut,41.45949668,-72.53714864,162436.0
1486,09009,New Haven,Connecticut,41.4080325,-72.93620426,854757.0
1487,09011,New London,Connecticut,41.48896435,-72.10430976,265206.0
1488,09013,Tolland,Connecticut,41.85853803,-72.3308481,150721.0
1489,09015,Windham,Connecticut,41.82972709,-71.98182316,116782.0
1490,10001,Kent,Delaware,39.08646628,-75.56884914,180786.0
1491,10003,New Castle,Delaware,39.57992638,-75.64054974,558753.0
1492,10005,Sussex,Delaware,38.66143781,-75.39031349,234225.0
1493,11001,District of Columbia,District of Columbia,38.90417773,-77.01655992,705749.0
1494,12001,Alachua,Florida,29.67866525,-82.35928158,269043.0
1495,12003,Baker,Florida,30.33060121,-82.28467476,29210.0
1496,12005,Bay,Florida,30.26548745,-85.62122584,174705.0
1497,12007,Bradford,Florida,29.95079741,-82.16611613,28201.0
1498,12009,Brevard,Florida,28.29409504,-80.73091022,601942.0
1499,12011,Broward,Florida,26.15184651,-80.48725556,1952778.0
1500,12013,Calhoun,Florida,30.40666734,-85.19394153,14105.0
1501,12015,Charlotte,Florida,26.90131002,-81.92949121,188910.0
1502,12017,Citrus,Florida,28.84804315,-82.47614748,149657.0
1503,12019,Clay,Florida,29.98319144,-81.85609986,219252.0
1504,12021,Collier,Florida,26.11091986,-81.34687065,384902.0
1505,12023,Columbia,Florida,30.22509788,-82.62160164,71686.0
1506,12027,DeSoto,Florida,27.18677893,-81.80941373,38001.0
1507,12029,Dixie,Florida,29.60631086,-83.15724673,16826.0
1508,12031,Duval,Florida,30.33225875,-81.66976468,957755.0
1509,12033,Escambia,Florida,30.67652764,-87.37284571,318316.0
1510,12035,Flagler,Florida,29.45933576,-81.31508595,115081.0
1511,12037,Franklin,Florida,29.83791238,-84.82731662,12125.0
1512,12039,Gadsden,Florida,30.57796289,-84.61915825,45660.0
1513,12041,Gilchrist,Florida,29.72856978,-82.79880657,18582.0
1514,12043,Glades,Florida,26.95635849,-81.18996211,13811.0
1515,12045,Gulf,Florida,29.93543004,-85.2427099,13639.0
1516,12047,Hamilton,Florida,30.49673973,-82.94998918,14428.0
1517,12049,Hardee,Florida,27.49293939,-81.80956574,26937.0
1518,12051,Hendry,Florida,26.55386945,-81.16469006,42022.0
1519,12053,Hernando,Florida,28.55364461,-82.42700204,193920.0
1520,12055,Highlands,Florida,27.34254618,-81.34071957,106221.0
1521,12057,Hillsborough,Florida,27.9276559,-82.32013172,1471968.0
1522,12059,Holmes,Florida,30.86747479,-85.81319222,19617.0
1523,12061,Indian River,Florida,27.69308961,-80.60556721,159923.0
1524,12063,Jackson,Florida,30.7954597,-85.21500423,46414.0
1525,12065,Jefferson,Florida,30.43669112,-83.89442308,14246.0
1526,12067,Lafayette,Florida,29.98484137,-83.18166636,8422.0
1527,12069,Lake,Florida,28.76202069,-81.7125123,367118.0
1528,12071,Lee,Florida,26.58410348,-81.88399313,770577.0
1529,12073,Leon,Florida,30.45955727,-84.27491114,293582.0
1530,12075,Levy,Florida,29.31829741,-82.74007147,41503.0
1531,12077,Liberty,Florida,30.23766008,-84.8829258,8354.0
1532,12079,Madison,Florida,30.44396917,-83.47398594,18493.0
1533,12081,Manatee,Florida,27.47196942,-82.31831044,403253.0
1534,12083,Marion,Florida,29.21227113,-82.05803627,365579.0
1535,12085,Martin,Florida,27.0772071,-80.43109784,161000.0
1536,12086,Miami-Dade,Florida,25.6112362,-80.55170587,2716940.0
1537,12087,Monroe,Florida,25.20904673,-81.07812416,74228.0
1538,12089,Nassau,Florida,30.61037141,-81.80297522,88625.0
1539,12091,Okaloosa,Florida,30.69143028,-86.59267105,210738.0
1540,12093,Okeechobee,Florida,27.3863362,-80.88944347,42168.0
1541,12095,Orange,Florida,28.51367621,-81.31799498,1393452.0
1542,12097,Osceola,Florida,28.06312234,-81.14882926,375751.0
1543,12099,Palm Beach,Florida,26.64676272,-80.46536002,1496770.0
1544,12101,Pasco,Florida,28.30810945,-82.40227529,553947.0
1545,12103,Pinellas,Florida,27.93130349,-82.72239666,974996.0
1546,12105,Polk,Florida,27.95027105,-81.69732947,724777.0
1547,12107,Putnam,Florida,29.60779729,-81.74230285,74521.0
1548,12109,St. Johns,Florida,29.90096506,-81.43589967,264672.0
1549,12111,St. Lucie,Florida,27.37763908,-80.47106649,328297.0
1550,12113,Santa Rosa,Florida,30.6934145,-87.02458128,184313.0
1551,12115,Sarasota,Florida,27.18546175,-82.33174248,433742.0
1552,12117,Seminole,Florida,28.7158582,-81.24060348,471826.0
1553,12119,Sumter,Florida,28.70181754,-82.0794267,132420.0
1554,12121,Suwannee,Florida,30.19746066,-82.9909967,44417.0
1555,12123,Taylor,Florida,30.04848048,-83.60445406,21569.0
1556,12125,Union,Florida,30.04412971,-82.37497443,15237.0
1557,12127,Volusia,Florida,29.05858895,-81.18263252,553284.0
1558,12129,Wakulla,Florida,30.16548905,-84.39895211,33739.0
1559,12131,Walton,Florida,30.64204028,-86.16935664,74071.0
1560,12133,Washington,Florida,30.61359259,-85.66002461,25473.0
1561,13001,Appling,Georgia,31.74847232,-82.28909114,18386.0
1562,13003,Atkinson,Georgia,31.29633502,-82.87545866,8165.0
1563,13005,Bacon,Georgia,31.55456473,-82.45936528,11164.0
1564,13007,Baker,Georgia,31.32669878,-84.44218806,3038.0
1565,13009,Baldwin,Georgia,33.06882326,-83.24701748,44890.0
1566,13011,Banks,Georgia,34.35607081,-83.49644388,19234.0
1567,13013,Barrow,Georgia,33.99148694,-83.71436292,83240.0
1568,13015,Bartow,Georgia,34.23732119,-84.83887523,107738.0
1569,13017,Ben Hill,Georgia,31.76095874,-83.22145359,16700.0
1570,13019,Berrien,Georgia,31.27590016,-83.2252992,19397.0
1571,13021,Bibb,Georgia,32.80904227,-83.70489165,153159.0
1572,13023,Bleckley,Georgia,32.43829035,-83.33035166,12873.0
1573,13025,Brantley,Georgia,31.19576557,-81.97743999,19109.0
1574,13027,Brooks,Georgia,30.83922642,-83.58303423,15457.0
1575,13029,Bryan,Georgia,32.00979311,-81.44002948,39627.0
1576,13031,Bulloch,Georgia,32.39577406,-81.74811421,79608.0
1577,13033,Burke,Georgia,33.05917989,-81.99928721,22383.0
1578,13035,Butts,Georgia,33.2830945,-83.9543504,24936.0
1579,13037,Calhoun,Georgia,31.53169785,-84.62725131,6189.0
1580,13039,Camden,Georgia,30.92951916,-81.66601818,54666.0
1581,13043,Candler,Georgia,32.40209349,-82.07702563,10803.0
1582,13045,Carroll,Georgia,33.58138199,-85.07976677,119992.0
1583,13047,Catoosa,Georgia,34.89872298,-85.13757014,67580.0
1584,13049,Charlton,Georgia,30.78371028,-82.13951596,13392.0
1585,13051,Chatham,Georgia,32.00043026,-81.12489526,289430.0
1586,13053,Chattahoochee,Georgia,32.34341231,-84.78809239,10907.0
1587,13055,Chattooga,Georgia,34.47197698,-85.34535662,24789.0
1588,13057,Cherokee,Georgia,34.24393976,-84.47431861,258773.0
1589,13059,Clarke,Georgia,33.95436462,-83.37124007,128331.0
1590,13061,Clay,Georgia,31.62221166,-84.97713865,2834.0
1591,13063,Clayton,Georgia,33.54187245,-84.35594188,292256.0
1592,13065,Clinch,Georgia,30.91395822,-82.70432472,6618.0
1593,13067,Cobb,Georgia,33.94243204,-84.5761255,760141.0
1594,13069,Coffee,Georgia,31.54892966,-82.8549206,43273.0
1595,13071,Colquitt,Georgia,31.18810588,-83.7677946,45600.0
1596,13073,Columbia,Georgia,33.54534185,-82.263524,156714.0
1597,13075,Cook,Georgia,31.16068491,-83.42947229,17270.0
1598,13077,Coweta,Georgia,33.35334302,-84.76129976,148509.0
1599,13079,Crawford,Georgia,32.71391813,-83.98061238,12404.0
1600,13081,Crisp,Georgia,31.92289565,-83.76811843,22372.0
1601,13083,Dade,Georgia,34.8549167,-85.50490424,16116.0
1602,13085,Dawson,Georgia,34.44244079,-84.16964071,26108.0
1603,13087,Decatur,Georgia,30.87967778,-84.57619536,26404.0
1604,13089,DeKalb,Georgia,33.76944049,-84.22396017,759297.0
1605,13091,Dodge,Georgia,32.17265114,-83.16948926,20605.0
1606,13093,Dooly,Georgia,32.15630737,-83.79746561,13390.0
1607,13095,Dougherty,Georgia,31.53328528,-84.21722377,87956.0
1608,13097,Douglas,Georgia,33.70291126,-84.77026156,146343.0
1609,13099,Early,Georgia,31.32155345,-84.90255207,10190.0
1610,13101,Echols,Georgia,30.71101099,-82.89687287,4006.0
1611,13103,Effingham,Georgia,32.36616021,-81.34280942,64296.0
1612,13105,Elbert,Georgia,34.11302332,-82.83936148,19194.0
1613,13107,Emanuel,Georgia,32.59221302,-82.30239915,22646.0
1614,13109,Evans,Georgia,32.15328841,-81.8870105,10654.0
1615,13111,Fannin,Georgia,34.86430205,-84.316964,26188.0
1616,13113,Fayette,Georgia,33.41357794,-84.49089434,114421.0
1617,13115,Floyd,Georgia,34.26268279,-85.21577392,98498.0
1618,13117,Forsyth,Georgia,34.22604035,-84.1231513,244252.0
1619,13119,Franklin,Georgia,34.37525597,-83.23159927,23349.0
1620,13121,Fulton,Georgia,33.79216944,-84.46319413,1063937.0
1621,13123,Gilmer,Georgia,34.69316688,-84.45802506,31369.0
1622,13125,Glascock,Georgia,33.22879932,-82.61297636,2971.0
1623,13127,Glynn,Georgia,31.23279254,-81.53811412,85292.0
1624,13129,Gordon,Georgia,34.50487351,-84.87296253,57963.0
1625,13131,Grady,Georgia,30.87454847,-84.23418364,24633.0
1626,13133,Greene,Georgia,33.5769205,-83.17139104,18324.0
1627,13135,Gwinnett,Georgia,33.96044201,-84.02137802,936250.0
1628,13137,Habersham,Georgia,34.63331566,-83.53094677,45328.0
1629,13139,Hall,Georgia,34.32207823,-83.81896936,204441.0
1630,13141,Hancock,Georgia,33.2721566,-82.99766919,8457.0
1631,13143,Haralson,Georgia,33.79602175,-85.21005667,29792.0
1632,13145,Harris,Georgia,32.73709786,-84.90538572,35236.0
1633,13147,Hart,Georgia,34.34626973,-82.96567682,26205.0
1634,13149,Heard,Georgia,33.29686567,-85.12886832,11923.0
1635,13151,Henry,Georgia,33.4533428,-84.1481466,234561.0
1636,13153,Houston,Georgia,32.45802497,-83.66879087,157863.0
1637,13155,Irwin,Georgia,31.60213036,-83.27501387,9416.0
1638,13157,Jackson,Georgia,34.13794553,-83.56814788,72977.0
1639,13159,Jasper,Georgia,33.31535543,-83.68844964,14219.0
1640,13161,Jeff Davis,Georgia,31.80405727,-82.6372487,15115.0
1641,13163,Jefferson,Georgia,33.05867328,-82.41609057,15362.0
1642,13165,Jenkins,Georgia,32.79248718,-81.96040187,8676.0
1643,13167,Johnson,Georgia,32.70211082,-82.66166794,9643.0
1644,13169,Jones,Georgia,33.02512137,-83.56019163,28735.0
1645,13171,Lamar,Georgia,33.07841647,-84.14263877,19077.0
1646,13173,Lanier,Georgia,31.0382857,-83.06472457,10423.0
1647,13175,Laurens,Georgia,32.46325233,-82.92221316,47546.0
1648,13177,Lee,Georgia,31.7793306,-84.14324253,29992.0
1649,13179,Liberty,Georgia,31.82588896,-81.49251135,61435.0
1650,13181,Lincoln,Georgia,33.79201475,-82.45024131,7921.0
1651,13183,Long,Georgia,31.75218791,-81.74952375,19559.0
1652,13185,Lowndes,Georgia,30.83568832,-83.27056716,117406.0
1653,13187,Lumpkin,Georgia,34.57286511,-84.00425681,33610.0
1654,13189,McDuffie,Georgia,33.47851918,-82.48252774,21312.0
1655,13191,McIntosh,Georgia,31.49683595,-81.40163426,14378.0
1656,13193,Macon,Georgia,32.35207048,-84.04234127,12947.0
1657,13195,Madison,Georgia,34.12920917,-83.21218732,29880.0
1658,13197,Marion,Georgia,32.3483402,-84.52733571,8359.0
1659,13199,Meriwether,Georgia,33.04163534,-84.68859732,21167.0
1660,13201,Miller,Georgia,31.16568912,-84.73151117,5718.0
1661,13205,Mitchell,Georgia,31.22483255,-84.19381821,21863.0
1662,13207,Monroe,Georgia,33.014289,-83.92097166,27578.0
1663,13209,Montgomery,Georgia,32.17201038,-82.53527476,9172.0
1664,13211,Morgan,Georgia,33.59232073,-83.49129491,19276.0
1665,13213,Murray,Georgia,34.78897608,-84.74993177,40096.0
1666,13215,Muscogee,Georgia,32.50931999,-84.87142262,195769.0
1667,13217,Newton,Georgia,33.55514538,-83.8454714,111744.0
1668,13219,Oconee,Georgia,33.83749973,-83.43679568,40280.0
1669,13221,Oglethorpe,Georgia,33.8786296,-83.08278123,15259.0
1670,13223,Paulding,Georgia,33.91969522,-84.86848792,168667.0
1671,13225,Peach,Georgia,32.56934316,-83.82937,27546.0
1672,13227,Pickens,Georgia,34.46589159,-84.46406611,32591.0
1673,13229,Pierce,Georgia,31.35928155,-82.21598442,19465.0
1674,13231,Pike,Georgia,33.09310242,-84.38790389,18962.0
1675,13233,Polk,Georgia,34.00267074,-85.18677781,42613.0
1676,13235,Pulaski,Georgia,32.23334561,-83.4754996,11137.0
1677,13237,Putnam,Georgia,33.32056115,-83.37552891,22119.0
1678,13239,Quitman,Georgia,31.86728114,-85.01773177,2299.0
1679,13241,Rabun,Georgia,34.88389445,-83.40304637,17137.0
1680,13243,Randolph,Georgia,31.76622818,-84.75732369,6778.0
1681,13245,Richmond,Georgia,33.35777107,-82.07026432,202518.0
1682,13247,Rockdale,Georgia,33.65145002,-84.02202167,90896.0
1683,13249,Schley,Georgia,32.2654021,-84.31258912,5257.0
1684,13251,Screven,Georgia,32.74976524,-81.60779441,13966.0
1685,13253,Seminole,Georgia,30.93464824,-84.86823924,8090.0
1686,13255,Spalding,Georgia,33.26310031,-84.28013991,66703.0
1687,13257,Stephens,Georgia,34.55151201,-83.29405315,25925.0
1688,13259,Stewart,Georgia,32.07996777,-84.83208037,6621.0
1689,13261,Sumter,Georgia,32.03650571,-84.19821492,29524.0
1690,13263,Talbot,Georgia,32.69642758,-84.53351366,6195.0
1691,13265,Taliaferro,Georgia,33.56543317,-82.88136816,1537.0
1692,13267,Tattnall,Georgia,32.04785085,-82.05539188,25286.0
1693,13269,Taylor,Georgia,32.55792548,-84.25077141,8020.0
1694,13271,Telfair,Georgia,31.92829517,-82.93491155,15860.0
1695,13273,Terrell,Georgia,31.77527543,-84.44069698,8531.0
1696,13275,Thomas,Georgia,30.86392347,-83.91847289,44451.0
1697,13277,Tift,Georgia,31.45743864,-83.5236119,40644.0
1698,13279,Toombs,Georgia,32.12059861,-82.32957247,26830.0
1699,13281,Towns,Georgia,34.91369188,-83.7410746,12037.0
1700,13283,Treutlen,Georgia,32.40422134,-82.56904553,6901.0
1701,13285,Troup,Georgia,33.03349196,-85.02812115,69922.0
1702,13287,Turner,Georgia,31.71612656,-83.62069378,7985.0
1703,13289,Twiggs,Georgia,32.67435595,-83.43078662,8120.0
1704,13291,Union,Georgia,34.82995757,-83.98967069,24511.0
1705,13293,Upson,Georgia,32.87920671,-84.30024826,26320.0
1706,13295,Walker,Georgia,34.73376362,-85.30165174,69761.0
1707,13297,Walton,Georgia,33.78017694,-83.73552314,94593.0
1708,13299,Ware,Georgia,31.05449097,-82.42224148,35734.0
1709,13301,Warren,Georgia,33.41146451,-82.67795848,5254.0
1710,13303,Washington,Georgia,32.96711864,-82.79357039,20374.0
1711,13305,Wayne,Georgia,31.5521809,-81.91894878,29927.0
1712,13307,Webster,Georgia,32.04066113,-84.54742852,2607.0
1713,13309,Wheeler,Georgia,32.12009104,-82.72574721,7855.0
1714,13311,White,Georgia,34.64624278,-83.74905525,30798.0
1715,13313,Whitfield,Georgia,34.80987459,-84.96093476,104628.0
1716,13315,Wilcox,Georgia,31.97496928,-83.43438555,8635.0
1717,13317,Wilkes,Georgia,33.78290391,-82.74286107,9777.0
1718,13319,Wilkinson,Georgia,32.80291082,-83.17140684,8954.0
1719,13321,Worth,Georgia,31.55162306,-83.85090513,20247.0
1725,16001,Ada,Idaho,43.4526575,-116.2415516,481587.0
1726,16003,Adams,Idaho,44.89333571,-116.4545247,4294.0
1727,16005,Bannock,Idaho,42.67002716,-112.2233311,87808.0
1728,16007,Bear Lake,Idaho,42.28269683,-111.3289238,6125.0
1729,16009,Benewah,Idaho,47.21754179,-116.6586851,9298.0
1730,16011,Bingham,Idaho,43.2167288,-112.3978437,46811.0
1731,16013,Blaine,Idaho,43.4085812,-113.9752658,23021.0
1732,16015,Boise,Idaho,43.98829931,-115.7309284,7831.0
1733,16017,Bonner,Idaho,48.29996017,-116.6017932,45739.0
1734,16019,Bonneville,Idaho,43.38713372,-111.6161537,119062.0
1735,16021,Boundary,Idaho,48.76684761,-116.4630179,12245.0
1736,16023,Butte,Idaho,43.72592209,-113.1735463,2597.0
1737,16025,Camas,Idaho,43.46665742,-114.8065892,1106.0
1738,16027,Canyon,Idaho,43.61970148,-116.7095499,229849.0
1739,16029,Caribou,Idaho,42.77149116,-111.5597683,7155.0
1740,16031,Cassia,Idaho,42.28347888,-113.6012409,24030.0
1741,16033,Clark,Idaho,44.28496071,-112.3505704,845.0
1742,16035,Clearwater,Idaho,46.67459924,-115.6622393,8756.0
1743,16037,Custer,Idaho,44.24186819,-114.2855494,4315.0
1744,16039,Elmore,Idaho,43.3507101,-115.4701578,27511.0
1745,16041,Franklin,Idaho,42.18332217,-111.8149666,13876.0
1746,16043,Fremont,Idaho,44.22800938,-111.4809943,13099.0
1747,16045,Gem,Idaho,44.06482372,-116.398376,18112.0
1748,16047,Gooding,Idaho,42.96927962,-114.8108306,15179.0
1749,16049,Idaho,Idaho,45.84721541,-115.4634436,16667.0
1750,16051,Jefferson,Idaho,43.82078483,-112.3131749,29871.0
1751,16053,Jerome,Idaho,42.68891267,-114.2655033,24412.0
1752,16055,Kootenai,Idaho,47.67282258,-116.7020872,165697.0
1753,16057,Latah,Idaho,46.81587887,-116.7113698,40108.0
1754,16059,Lemhi,Idaho,44.9438088,-113.9309747,8027.0
1755,16061,Lewis,Idaho,46.23315327,-116.434146,3838.0
1756,16063,Lincoln,Idaho,43.0012336,-114.1358773,5366.0
1757,16065,Madison,Idaho,43.78141028,-111.6538474,39907.0
1758,16067,Minidoka,Idaho,42.85518524,-113.6357257,21039.0
1759,16069,Nez Perce,Idaho,46.32638236,-116.7500975,40408.0
1760,16071,Oneida,Idaho,42.1949428,-112.5407838,4531.0
1761,16073,Owyhee,Idaho,42.58016894,-116.1693871,11823.0
1762,16075,Payette,Idaho,44.00545243,-116.7647695,23951.0
1763,16077,Power,Idaho,42.69254894,-112.8395742,7681.0
1764,16079,Shoshone,Idaho,47.35364087,-115.8916749,12882.0
1765,16081,Teton,Idaho,43.75303583,-111.2056773,12142.0
1766,16083,Twin Falls,Idaho,42.35440512,-114.6685381,86878.0
1767,16085,Valley,Idaho,44.76728382,-115.5676773,11392.0
1768,16087,Washington,Idaho,44.45275475,-116.7847688,10194.0
1769,17001,Adams,Illinois,39.98815591,-91.18786813,65435.0
1770,17003,Alexander,Illinois,37.18049267,-89.32910838,5761.0
1771,17005,Bond,Illinois,38.88829622,-89.43534887,16426.0
1772,17007,Boone,Illinois,42.32359279,-88.82345779,53544.0
1773,17009,Brown,Illinois,39.96209138,-90.75068024,6578.0
1774,17011,Bureau,Illinois,41.40385234,-89.5283051,32628.0
1775,17013,Calhoun,Illinois,39.16840183,-90.66330078,4739.0
1776,17015,Carroll,Illinois,42.06823429,-89.93395545,14305.0
1777,17017,Cass,Illinois,39.96991073,-90.24734436,12147.0
1778,17019,Champaign,Illinois,40.13919438,-88.20046615,209689.0
1779,17021,Christian,Illinois,39.54581621,-89.27780482,32304.0
1780,17023,Clark,Illinois,39.33425789,-87.78705622,15441.0
1781,17025,Clay,Illinois,38.75388572,-88.48914513,13184.0
1782,17027,Clinton,Illinois,38.60704876,-89.42385254,37562.0
1783,17029,Coles,Illinois,39.51949084,-88.22358557,50621.0
1784,17031,Cook,Illinois,41.84144849,-87.81658794,5150233.0
1785,17033,Crawford,Illinois,39.0032229,-87.75954624,18667.0
1786,17035,Cumberland,Illinois,39.27432424,-88.2401158,10766.0
1787,17037,DeKalb,Illinois,41.89373302,-88.76958483,104897.0
1788,17039,De Witt,Illinois,40.17514519,-88.90959682,15638.0
1789,17041,Douglas,Illinois,39.76768052,-88.21854195,19465.0
1790,17043,DuPage,Illinois,41.85116968,-88.08642662,922921.0
1791,17045,Edgar,Illinois,39.6809186,-87.74759563,17161.0
1792,17047,Edwards,Illinois,38.41353228,-88.05720863,6395.0
1793,17049,Effingham,Illinois,39.05935711,-88.58969584,34008.0
1794,17051,Fayette,Illinois,39.00072038,-89.02452658,21336.0
1795,17053,Ford,Illinois,40.59706922,-88.22350769,12961.0
1796,17055,Franklin,Illinois,37.99189086,-88.92567818,38469.0
1797,17057,Fulton,Illinois,40.47289135,-90.20862357,34340.0
1798,17059,Gallatin,Illinois,37.76430935,-88.22953869,4828.0
1799,17061,Greene,Illinois,39.35907414,-90.388865,12969.0
1800,17063,Grundy,Illinois,41.28569601,-88.41905692,51054.0
1801,17065,Hamilton,Illinois,38.08163641,-88.53883373,8116.0
1802,17067,Hancock,Illinois,40.40423981,-91.16313899,17708.0
1803,17069,Hardin,Illinois,37.51810645,-88.26873022,3821.0
1804,17071,Henderson,Illinois,40.81908672,-90.92491462,6646.0
1805,17073,Henry,Illinois,41.3533994,-90.13296166,48913.0
1806,17075,Iroquois,Illinois,40.74717633,-87.82466784,27114.0
1807,17077,Jackson,Illinois,37.78595185,-89.38232563,56750.0
1808,17079,Jasper,Illinois,39.01054275,-88.15437049,9610.0
1809,17081,Jefferson,Illinois,38.29980057,-88.9240025,37684.0
1810,17083,Jersey,Illinois,39.08869046,-90.35393073,21773.0
1811,17085,Jo Daviess,Illinois,42.36542373,-90.21094405,21235.0
1812,17087,Johnson,Illinois,37.45939802,-88.88165419,12417.0
1813,17089,Kane,Illinois,41.93842729,-88.42861412,532403.0
1814,17091,Kankakee,Illinois,41.13746989,-87.86205334,109862.0
1815,17093,Kendall,Illinois,41.59081014,-88.42869583,128990.0
1816,17095,Knox,Illinois,40.93148779,-90.2133034,49699.0
1817,17097,Lake,Illinois,42.3224907,-88.00367925,696535.0
1818,17099,LaSalle,Illinois,41.3442613,-88.88633881,108669.0
1819,17101,Lawrence,Illinois,38.71987914,-87.72884035,15678.0
1820,17103,Lee,Illinois,41.74583951,-89.29977132,34096.0
1821,17105,Livingston,Illinois,40.89188292,-88.55784752,35648.0
1822,17107,Logan,Illinois,40.12581572,-89.36638784,28618.0
1823,17109,McDonough,Illinois,40.45674722,-90.67775541,29682.0
1824,17111,McHenry,Illinois,42.32451172,-88.45248227,307774.0
1825,17113,McLean,Illinois,40.48996987,-88.84621113,171517.0
1826,17115,Macon,Illinois,39.86064913,-88.96342505,104009.0
1827,17117,Macoupin,Illinois,39.26119767,-89.92424028,44926.0
1828,17119,Madison,Illinois,38.83042506,-89.90422563,262966.0
1829,17121,Marion,Illinois,38.64963204,-88.91899208,37205.0
1830,17123,Marshall,Illinois,41.0327901,-89.34510444,11438.0
1831,17125,Mason,Illinois,40.23917274,-89.91824452,13359.0
1832,17127,Massac,Illinois,37.22078441,-88.71036614,13772.0
1833,17129,Menard,Illinois,40.02742725,-89.80246001,12196.0
1834,17131,Mercer,Illinois,41.20596782,-90.74290052,15437.0
1835,17133,Monroe,Illinois,38.27594376,-90.17761038,34637.0
1836,17135,Montgomery,Illinois,39.23198845,-89.47809254,28414.0
1837,17137,Morgan,Illinois,39.71654544,-90.20255104,33658.0
1838,17139,Moultrie,Illinois,39.64187451,-88.62099969,14501.0
1839,17141,Ogle,Illinois,42.04165196,-89.32184679,50643.0
1840,17143,Peoria,Illinois,40.78702156,-89.76078901,179179.0
1841,17145,Perry,Illinois,38.08510853,-89.36856219,20916.0
1842,17147,Piatt,Illinois,40.01360584,-88.59319339,16344.0
1843,17149,Pike,Illinois,39.62265059,-90.8877017,15561.0
1844,17151,Pope,Illinois,37.41391284,-88.56152109,4177.0
1845,17153,Pulaski,Illinois,37.22631423,-89.13085001,5335.0
1846,17155,Putnam,Illinois,41.2013541,-89.2869272,5739.0
1847,17157,Randolph,Illinois,38.05095369,-89.82512254,31782.0
1848,17159,Richland,Illinois,38.71240969,-88.08475366,15513.0
1849,17161,Rock Island,Illinois,41.46613806,-90.57042164,141879.0
1850,17163,St. Clair,Illinois,38.46996033,-89.93063427,259686.0
1851,17165,Saline,Illinois,37.75332999,-88.54119706,23491.0
1852,17167,Sangamon,Illinois,39.75836914,-89.65872023,194672.0
1853,17169,Schuyler,Illinois,40.1571798,-90.61114163,6768.0
1854,17171,Scott,Illinois,39.6429169,-90.47814431,4951.0
1855,17173,Shelby,Illinois,39.39133527,-88.80611122,21634.0
1856,17175,Stark,Illinois,41.09309773,-89.79745866,5342.0
1857,17177,Stephenson,Illinois,42.35129217,-89.662598,44498.0
1858,17179,Tazewell,Illinois,40.50716185,-89.51404662,131803.0
1859,17181,Union,Illinois,37.47119609,-89.25548938,16653.0
1860,17183,Vermilion,Illinois,40.18417171,-87.73384359,75758.0
1861,17185,Wabash,Illinois,38.44272901,-87.84922065,11520.0
1862,17187,Warren,Illinois,40.84925021,-90.6147432,16844.0
1863,17189,Washington,Illinois,38.35309213,-89.40982703,13887.0
1864,17191,Wayne,Illinois,38.42955355,-88.42586459,16215.0
1865,17193,White,Illinois,38.08706198,-88.17657461,13537.0
1866,17195,Whiteside,Illinois,41.75509713,-89.91556058,55175.0
1867,17197,Will,Illinois,41.44619267,-87.97862712,690743.0
1868,17199,Williamson,Illinois,37.73033511,-88.92994027,66597.0
1869,17201,Winnebago,Illinois,42.33641854,-89.16085327,282572.0
1870,17203,Woodford,Illinois,40.78579374,-89.20973757,38459.0
1871,18001,Adams,Indiana,40.7457653,-84.93671406,35777.0
1872,18003,Allen,Indiana,41.09194313,-85.06800636,379299.0
1873,18005,Bartholomew,Indiana,39.20744865,-85.89558181,83779.0
1874,18007,Benton,Indiana,40.60626947,-87.31093999,8748.0
1875,18009,Blackford,Indiana,40.47388153,-85.32499702,11758.0
1876,18011,Boone,Indiana,40.0509304,-86.46841646,67843.0
1877,18013,Brown,Indiana,39.19605589,-86.22868909,15092.0
1878,18015,Carroll,Indiana,40.5807832,-86.56198812,20257.0
1879,18017,Cass,Indiana,40.76135835,-86.34830753,37689.0
1880,18019,Clark,Indiana,38.48015445,-85.70510334,118302.0
1881,18021,Clay,Indiana,39.39561833,-87.11723506,26225.0
1882,18023,Clinton,Indiana,40.30319754,-86.47277257,32399.0
1883,18025,Crawford,Indiana,38.28814402,-86.44518825,10577.0
1884,18027,Daviess,Indiana,38.70186039,-87.07185406,33351.0
1885,18029,Dearborn,Indiana,39.14647946,-84.97333539,49458.0
1886,18031,Decatur,Indiana,39.30712658,-85.50087166,26559.0
1887,18033,DeKalb,Indiana,41.39804622,-84.99906934,43475.0
1888,18035,Delaware,Indiana,40.22787247,-85.39732772,114135.0
1889,18037,Dubois,Indiana,38.36597551,-86.8792417,42736.0
1890,18039,Elkhart,Indiana,41.59761169,-85.85875695,206341.0
1891,18041,Fayette,Indiana,39.63684962,-85.17797541,23102.0
1892,18043,Floyd,Indiana,38.32117957,-85.90385377,78522.0
1893,18045,Fountain,Indiana,40.12361933,-87.24217689,16346.0
1894,18047,Franklin,Indiana,39.4142482,-85.06062647,22758.0
1895,18049,Fulton,Indiana,41.0469907,-86.26252745,19974.0
1896,18051,Gibson,Indiana,38.30393723,-87.58054938,33659.0
1897,18053,Grant,Indiana,40.51587228,-85.65468702,65769.0
1898,18055,Greene,Indiana,39.03630547,-86.96223202,31922.0
1899,18057,Hamilton,Indiana,40.07306535,-86.05244729,338011.0
1900,18059,Hancock,Indiana,39.82304555,-85.77566351,78168.0
1901,18061,Harrison,Indiana,38.19467379,-86.10948271,40515.0
1902,18063,Hendricks,Indiana,39.76719009,-86.51037283,170311.0
1903,18065,Henry,Indiana,39.93029017,-85.39625719,47972.0
1904,18067,Howard,Indiana,40.48527731,-86.11351892,82544.0
1905,18069,Huntington,Indiana,40.82907273,-85.48822092,36520.0
1906,18071,Jackson,Indiana,38.9091582,-86.03851889,44231.0
1907,18073,Jasper,Indiana,41.02078733,-87.11553319,33562.0
1908,18075,Jay,Indiana,40.43781032,-85.00576229,20436.0
1909,18077,Jefferson,Indiana,38.78576239,-85.43633383,32308.0
1910,18079,Jennings,Indiana,38.99588883,-85.62710784,27735.0
1911,18081,Johnson,Indiana,39.48994426,-86.10149107,158167.0
1912,18083,Knox,Indiana,38.68861576,-87.4194665,36594.0
1913,18085,Kosciusko,Indiana,41.24521668,-85.86312322,79456.0
1914,18087,LaGrange,Indiana,41.64232188,-85.42674232,39614.0
1915,18089,Lake,Indiana,41.41874274,-87.38277575,485493.0
1916,18091,LaPorte,Indiana,41.54366008,-86.74072188,109888.0
1917,18093,Lawrence,Indiana,38.84112637,-86.48361629,45370.0
1918,18095,Madison,Indiana,40.16143691,-85.71964711,129569.0
1919,18097,Marion,Indiana,39.78163624,-86.13826325,964582.0
1920,18099,Marshall,Indiana,41.32467367,-86.26185087,46258.0
1921,18101,Martin,Indiana,38.7099921,-86.80373186,10255.0
1922,18103,Miami,Indiana,40.76940965,-86.04525048,35516.0
1923,18105,Monroe,Indiana,39.16130004,-86.52414358,148431.0
1924,18107,Montgomery,Indiana,40.04034823,-86.89335024,38338.0
1925,18109,Morgan,Indiana,39.47899078,-86.44573375,70489.0
1926,18111,Newton,Indiana,40.95610449,-87.39635768,13984.0
1927,18113,Noble,Indiana,41.39672484,-85.41966713,47744.0
1928,18115,Ohio,Indiana,38.955305,-84.96515993,5875.0
1929,18117,Orange,Indiana,38.5411892,-86.49523093,19646.0
1930,18119,Owen,Indiana,39.31145587,-86.83900724,20799.0
1931,18121,Parke,Indiana,39.77202286,-87.20375833,16937.0
1932,18123,Perry,Indiana,38.07809328,-86.63741946,19169.0
1933,18125,Pike,Indiana,38.40112197,-87.23574907,12389.0
1934,18127,Porter,Indiana,41.45986947,-87.06848888,170389.0
1935,18129,Posey,Indiana,38.02097333,-87.86480429,25427.0
1936,18131,Pulaski,Indiana,41.04166107,-86.69890683,12353.0
1937,18133,Putnam,Indiana,39.66437981,-86.84517605,37576.0
1938,18135,Randolph,Indiana,40.15734772,-85.01139319,24665.0
1939,18137,Ripley,Indiana,39.10235626,-85.26212744,28324.0
1940,18139,Rush,Indiana,39.62002287,-85.4655599,16581.0
1941,18141,St. Joseph,Indiana,41.61756781,-86.29040834,271826.0
1942,18143,Scott,Indiana,38.68672078,-85.74627859,23873.0
1943,18145,Shelby,Indiana,39.52305623,-85.7915857,44729.0
1944,18147,Spencer,Indiana,38.01519732,-87.0079644,20277.0
1945,18149,Starke,Indiana,41.27890281,-86.64686895,22995.0
1946,18151,Steuben,Indiana,41.64423868,-85.00101094,34594.0
1947,18153,Sullivan,Indiana,39.08952258,-87.41414469,20669.0
1948,18155,Switzerland,Indiana,38.82767338,-85.03022429,10751.0
1949,18157,Tippecanoe,Indiana,40.38872739,-86.89413959,195732.0
1950,18159,Tipton,Indiana,40.31123252,-86.05234925,15148.0
1951,18161,Union,Indiana,39.62550777,-84.92497066,7054.0
1952,18163,Vanderburgh,Indiana,38.02658833,-87.58763124,181451.0
1953,18165,Vermillion,Indiana,39.8523352,-87.46160542,15498.0
1954,18167,Vigo,Indiana,39.42944561,-87.39169027,107038.0
1955,18169,Wabash,Indiana,40.84704239,-85.79328272,30996.0
1956,18171,Warren,Indiana,40.34728141,-87.35602659,8265.0
1957,18173,Warrick,Indiana,38.08922676,-87.2716085,62998.0
1958,18175,Washington,Indiana,38.60219804,-86.1049363,28036.0
1959,18177,Wayne,Indiana,39.8633444,-85.01044989,65884.0
1960,18179,Wells,Indiana,40.72934187,-85.22132966,28296.0
1961,18181,White,Indiana,40.74911165,-86.86492015,24102.0
1962,18183,Whitley,Indiana,41.13863784,-85.50791236,33964.0
1963,19001,Adair,Iowa,41.33075609,-94.47105874,7152.0
1964,19003,Adams,Iowa,41.02903567,-94.69932645,3602.0
1965,19005,Allamakee,Iowa,43.28383218,-91.37860922,13687.0
1966,19007,Appanoose,Iowa,40.74324454,-92.86865906,12426.0
1967,19009,Audubon,Iowa,41.6844628,-94.90581859,5496.0
1968,19011,Benton,Iowa,42.08011739,-92.06463573,25645.0
1969,19013,Black Hawk,Iowa,42.4704581,-92.30524729,131228.0
1970,19015,Boone,Iowa,42.03657094,-93.9313999,26234.0
1971,19017,Bremer,Iowa,42.77461496,-92.31795937,25062.0
1972,19019,Buchanan,Iowa,42.4709188,-91.83510825,21175.0
1973,19021,Buena Vista,Iowa,42.73545875,-95.15100162,19620.0
1974,19023,Butler,Iowa,42.73172833,-92.79015971,14439.0
1975,19025,Calhoun,Iowa,42.38521079,-94.64046046,9668.0
1976,19027,Carroll,Iowa,42.03617207,-94.86032705,20165.0
1977,19029,Cass,Iowa,41.33149454,-94.92792482,12836.0
1978,19031,Cedar,Iowa,41.77233777,-91.13246684,18627.0
1979,19033,Cerro Gordo,Iowa,43.08177563,-93.2612239,42450.0
1980,19035,Cherokee,Iowa,42.73538914,-95.62389402,11235.0
1981,19037,Chickasaw,Iowa,43.06001295,-92.31773347,11933.0
1982,19039,Clarke,Iowa,41.02868181,-93.78499767,9395.0
1983,19041,Clay,Iowa,43.08247182,-95.15096481,16016.0
1984,19043,Clayton,Iowa,42.84443388,-91.34133693,17549.0
1985,19045,Clinton,Iowa,41.89981633,-90.53275096,46429.0
1986,19047,Crawford,Iowa,42.03718237,-95.3819718,16820.0
1987,19049,Dallas,Iowa,41.68560356,-94.04127625,93453.0
1988,19051,Davis,Iowa,40.74773536,-92.41005468,9000.0
1989,19053,Decatur,Iowa,40.73742757,-93.78645949,7870.0
1990,19055,Delaware,Iowa,42.47104597,-91.3664492,17011.0
1991,19057,Des Moines,Iowa,40.92012606,-91.18326592,38967.0
1992,19059,Dickinson,Iowa,43.37787725,-95.1510206,17258.0
1993,19061,Dubuque,Iowa,42.46815349,-90.88181925,97311.0
1994,19063,Emmet,Iowa,43.37782951,-94.67858943,9208.0
1995,19065,Fayette,Iowa,42.86271799,-91.8441231,19650.0
1996,19067,Floyd,Iowa,43.0600053,-92.78940097,15642.0
1997,19069,Franklin,Iowa,42.73270384,-93.26256925,10070.0
1998,19071,Fremont,Iowa,40.7454272,-95.60129045,6960.0
1999,19073,Greene,Iowa,42.03614551,-94.39658081,8888.0
2000,19075,Grundy,Iowa,42.40183723,-92.78829551,12232.0
2001,19077,Guthrie,Iowa,41.68378965,-94.50111014,10689.0
2002,19079,Hamilton,Iowa,42.38382428,-93.70197703,14773.0
2003,19081,Hancock,Iowa,43.08178477,-93.73454884,10630.0
2004,19083,Hardin,Iowa,42.38353877,-93.23654611,16846.0
2005,19085,Harrison,Iowa,41.68330137,-95.81558439,14049.0
2006,19087,Henry,Iowa,40.98767962,-91.54436349,19954.0
2007,19089,Howard,Iowa,43.35671042,-92.31702714,9158.0
2008,19091,Humboldt,Iowa,42.7764426,-94.20722537,9558.0
2009,19093,Ida,Iowa,42.38696136,-95.51355387,6860.0
2010,19095,Iowa,Iowa,41.68630265,-92.0643373,16184.0
2011,19097,Jackson,Iowa,42.17178824,-90.57354837,19439.0
2012,19099,Jasper,Iowa,41.68576082,-93.05567785,37185.0
2013,19101,Jefferson,Iowa,41.03192394,-91.94849466,18295.0
2014,19103,Johnson,Iowa,41.67169354,-91.58754744,151140.0
2015,19105,Jones,Iowa,42.12118609,-91.13139641,20681.0
2016,19107,Keokuk,Iowa,41.33649833,-92.1785067,10246.0
2017,19109,Kossuth,Iowa,43.20405458,-94.20691791,14813.0
2018,19111,Lee,Iowa,40.64181461,-91.48183025,33657.0
2019,19113,Linn,Iowa,42.07923082,-91.59809485,226706.0
2020,19115,Louisa,Iowa,41.21842119,-91.26102611,11035.0
2021,19117,Lucas,Iowa,41.02958964,-93.32780803,8600.0
2022,19119,Lyon,Iowa,43.38107862,-96.20926845,11755.0
2023,19121,Madison,Iowa,41.33081904,-94.01554631,16338.0
2024,19123,Mahaska,Iowa,41.33521503,-92.64083907,22095.0
2025,19125,Marion,Iowa,41.33445101,-93.09934783,33253.0
2026,19127,Marshall,Iowa,42.03586837,-92.9990819,39369.0
2027,19129,Mills,Iowa,41.03299766,-95.61920963,15109.0
2028,19131,Mitchell,Iowa,43.35638371,-92.78887719,10586.0
2029,19133,Monona,Iowa,42.05220391,-95.95743843,8615.0
2030,19135,Monroe,Iowa,41.02988815,-92.8690667,7707.0
2031,19137,Montgomery,Iowa,41.03018714,-95.15642896,9917.0
2032,19139,Muscatine,Iowa,41.48370744,-91.1121697,42664.0
2033,19141,O'Brien,Iowa,43.08310673,-95.62474482,13753.0
2034,19143,Osceola,Iowa,43.37824276,-95.62422844,5958.0
2035,19145,Page,Iowa,40.7393172,-95.1497813,15107.0
2036,19147,Palo Alto,Iowa,43.08193849,-94.67824621,8886.0
2037,19149,Plymouth,Iowa,42.737633,-96.21366621,25177.0
2038,19151,Pocahontas,Iowa,42.73420133,-94.67862564,6619.0
2039,19153,Polk,Iowa,41.68679484,-93.57767461,490161.0
2040,19155,Pottawattamie,Iowa,41.33640314,-95.53907776,93206.0
2041,19157,Poweshiek,Iowa,41.68625425,-92.53155731,18504.0
2042,19159,Ringgold,Iowa,40.73518949,-94.24368535,4894.0
2043,19161,Sac,Iowa,42.38624071,-95.10547892,9721.0
2044,19163,Scott,Iowa,41.63935978,-90.61959493,172943.0
2045,19165,Shelby,Iowa,41.6850066,-95.31015553,11454.0
2046,19167,Sioux,Iowa,43.08221074,-96.1767568,34855.0
2047,19169,Story,Iowa,42.03621213,-93.46499005,97117.0
2048,19171,Tama,Iowa,42.07991767,-92.53266945,16854.0
2049,19173,Taylor,Iowa,40.73710579,-94.69778563,6121.0
2050,19175,Union,Iowa,41.0277278,-94.24234847,12241.0
2051,19177,Van Buren,Iowa,40.75326764,-91.95017958,7044.0
2052,19179,Wapello,Iowa,41.03064984,-92.40954728,34969.0
2053,19181,Warren,Iowa,41.33559454,-93.56007641,51466.0
2054,19183,Washington,Iowa,41.33577126,-91.71725711,21965.0
2055,19185,Wayne,Iowa,40.73969028,-93.32752197,6441.0
2056,19187,Webster,Iowa,42.42853483,-94.17987389,35904.0
2057,19189,Winnebago,Iowa,43.37751174,-93.73407298,10354.0
2058,19191,Winneshiek,Iowa,43.29094334,-91.84422722,19991.0
2059,19193,Woodbury,Iowa,42.38979414,-96.0459439,103107.0
2060,19195,Worth,Iowa,43.37750768,-93.26087602,7381.0
2061,19197,Wright,Iowa,42.73305373,-93.73515113,12562.0
2062,20001,Allen,Kansas,37.88582951,-95.30030847,12369.0
2063,20003,Anderson,Kansas,38.21413251,-95.29272815,7858.0
2064,20005,Atchison,Kansas,39.53185661,-95.30870026,16073.0
2065,20007,Barber,Kansas,37.2288586,-98.68460053,4427.0
2066,20009,Barton,Kansas,38.47889676,-98.75636726,25779.0
2067,20011,Bourbon,Kansas,37.85508555,-94.84865997,14534.0
2068,20013,Brown,Kansas,39.82652589,-95.56421698,9564.0
2069,20015,Butler,Kansas,37.78134351,-96.83878537,66911.0
2070,20017,Chase,Kansas,38.30292938,-96.59563862,2648.0
2071,20019,Chautauqua,Kansas,37.14994405,-96.2454192,3250.0
2072,20021,Cherokee,Kansas,37.16928494,-94.8462897,19939.0
2073,20023,Cheyenne,Kansas,39.78580976,-101.7318201,2657.0
2074,20025,Clark,Kansas,37.23577007,-99.81883015,1994.0
2075,20027,Clay,Kansas,39.34948772,-97.16518128,8002.0
2076,20029,Cloud,Kansas,39.48028352,-97.64925343,8786.0
2077,20031,Coffey,Kansas,38.2365018,-95.73379515,8179.0
2078,20033,Comanche,Kansas,37.1911452,-99.27113247,1700.0
2079,20035,Cowley,Kansas,37.23781842,-96.83776647,34908.0
2080,20037,Crawford,Kansas,37.50675523,-94.85245778,38818.0
2081,20039,Decatur,Kansas,39.78468441,-100.4594081,2827.0
2082,20041,Dickinson,Kansas,38.86600962,-97.15532383,18466.0
2083,20043,Doniphan,Kansas,39.79067154,-95.14056866,7600.0
2084,20045,Douglas,Kansas,38.88503636,-95.2925121,122259.0
2085,20047,Edwards,Kansas,37.88735543,-99.31263309,2798.0
2086,20049,Elk,Kansas,37.45338105,-96.24369667,2530.0
2087,20051,Ellis,Kansas,38.91458712,-99.31751551,28553.0
2088,20053,Ellsworth,Kansas,38.69677695,-98.20462799,6102.0
2089,20055,Finney,Kansas,38.04340344,-100.7381938,36467.0
2090,20057,Ford,Kansas,37.69200114,-99.88825298,33619.0
2091,20059,Franklin,Kansas,38.56443815,-95.28644341,25544.0
2092,20061,Geary,Kansas,38.99871131,-96.7577178,31670.0
2093,20063,Gove,Kansas,38.91588178,-100.4829321,2636.0
2094,20065,Graham,Kansas,39.34987223,-99.88332493,2482.0
2095,20067,Grant,Kansas,37.56227336,-101.3079758,7150.0
2096,20069,Gray,Kansas,37.73836671,-100.4369088,5988.0
2097,20071,Greeley,Kansas,38.4808095,-101.8061079,1232.0
2098,20073,Greenwood,Kansas,37.8774388,-96.23250453,5982.0
2099,20075,Hamilton,Kansas,37.99978709,-101.7921066,2539.0
2100,20077,Harper,Kansas,37.19175361,-98.07578384,5436.0
2101,20079,Harvey,Kansas,38.04293782,-97.42747573,34429.0
2102,20081,Haskell,Kansas,37.5620394,-100.8710738,3968.0
2103,20083,Hodgeman,Kansas,38.08780079,-99.89829881,1794.0
2104,20085,Jackson,Kansas,39.41673394,-95.79356799,13171.0
2105,20087,Jefferson,Kansas,39.2347941,-95.38289232,19043.0
2106,20089,Jewell,Kansas,39.78470589,-98.21820662,2879.0
2107,20091,Johnson,Kansas,38.88548175,-94.82250877,602401.0
2108,20093,Kearny,Kansas,38.00017981,-101.321681,3838.0
2109,20095,Kingman,Kansas,37.55909527,-98.13638678,7152.0
2110,20097,Kiowa,Kansas,37.55848695,-99.2856537,2475.0
2111,20099,Labette,Kansas,37.19113093,-95.29849679,19618.0
2112,20101,Lane,Kansas,38.48119447,-100.4660754,1535.0
2113,20103,Leavenworth,Kansas,39.20183497,-95.03620809,81758.0
2114,20105,Lincoln,Kansas,39.04549684,-98.20756994,2962.0
2115,20107,Linn,Kansas,38.21267844,-94.84254089,9703.0
2116,20109,Logan,Kansas,38.91735806,-101.148475,2794.0
2117,20111,Lyon,Kansas,38.45576156,-96.15275715,33195.0
2118,20113,McPherson,Kansas,38.39184858,-97.64769869,28542.0
2119,20115,Marion,Kansas,38.35855394,-97.0985251,11884.0
2120,20117,Marshall,Kansas,39.78359669,-96.52278974,9707.0
2121,20119,Meade,Kansas,37.23859987,-100.364831,4033.0
2122,20121,Miami,Kansas,38.56383358,-94.83832189,34237.0
2123,20123,Mitchell,Kansas,39.39331582,-98.20906732,5979.0
2124,20125,Montgomery,Kansas,37.19236568,-95.74329258,31829.0
2125,20127,Morris,Kansas,38.68827511,-96.65128437,5620.0
2126,20129,Morton,Kansas,37.19141121,-101.7992519,2587.0
2127,20131,Nemaha,Kansas,39.78345387,-96.01392079,10231.0
2128,20133,Neosho,Kansas,37.55862897,-95.30670046,16007.0
2129,20135,Ness,Kansas,38.47974157,-99.91547333,2750.0
2130,20137,Norton,Kansas,39.78443827,-99.90286639,5361.0
2131,20139,Osage,Kansas,38.65235984,-95.72707998,15949.0
2132,20141,Osborne,Kansas,39.3503437,-98.76753828,3421.0
2133,20143,Ottawa,Kansas,39.13237408,-97.65020313,5704.0
2134,20145,Pawnee,Kansas,38.18108732,-99.23692334,6414.0
2135,20147,Phillips,Kansas,39.78465501,-99.34668865,5234.0
2136,20149,Pottawatomie,Kansas,39.37925655,-96.34564657,24383.0
2137,20151,Pratt,Kansas,37.64780729,-98.73922153,9164.0
2138,20153,Rawlins,Kansas,39.78525843,-101.0761617,2530.0
2139,20155,Reno,Kansas,37.95230263,-98.08607292,61998.0
2140,20157,Republic,Kansas,39.82799632,-97.65036709,4636.0
2141,20159,Rice,Kansas,38.34616184,-98.19992118,9537.0
2142,20161,Riley,Kansas,39.28935726,-96.73420026,74232.0
2143,20163,Rooks,Kansas,39.35022773,-99.32484567,4920.0
2144,20165,Rush,Kansas,38.52275276,-99.30863983,3036.0
2145,20167,Russell,Kansas,38.91462787,-98.76254297,6856.0
2146,20169,Saline,Kansas,38.78369175,-97.65185177,54224.0
2147,20171,Scott,Kansas,38.48222076,-100.9066539,4823.0
2148,20173,Sedgwick,Kansas,37.6842718,-97.4608198,516042.0
2149,20175,Seward,Kansas,37.19324632,-100.8507201,21428.0
2150,20177,Shawnee,Kansas,39.04100763,-95.7557264,176875.0
2151,20179,Sheridan,Kansas,39.35018161,-100.4418259,2521.0
2152,20181,Sherman,Kansas,39.35147699,-101.7197624,5917.0
2153,20183,Smith,Kansas,39.78516566,-98.78566062,3583.0
2154,20185,Stafford,Kansas,38.03100851,-98.71762001,4156.0
2155,20187,Stanton,Kansas,37.56304714,-101.7843534,2006.0
2156,20189,Stevens,Kansas,37.1923008,-101.3118967,5485.0
2157,20191,Sumner,Kansas,37.23682549,-97.47721621,22836.0
2158,20193,Thomas,Kansas,39.35107575,-101.0553705,7777.0
2159,20195,Trego,Kansas,38.91467218,-99.87284448,2803.0
2160,20197,Wabaunsee,Kansas,38.95471985,-96.20350509,6931.0
2161,20199,Wallace,Kansas,38.91686134,-101.7638876,1518.0
2162,20201,Washington,Kansas,39.78420784,-97.0875323,5406.0
2163,20203,Wichita,Kansas,38.48178252,-101.3471509,2119.0
2164,20205,Wilson,Kansas,37.55937174,-95.74323255,8525.0
2165,20207,Woodson,Kansas,37.8865336,-95.74006277,3138.0
2166,20209,Wyandotte,Kansas,39.11727348,-94.76378225,165429.0
2167,21001,Adair,Kentucky,37.10459774,-85.28129668,19202.0
2168,21003,Allen,Kentucky,36.75197631,-86.19457544,21315.0
2169,21005,Anderson,Kentucky,38.00671029,-84.99171713,22747.0
2170,21007,Ballard,Kentucky,37.05842757,-88.99427697,7888.0
2171,21009,Barren,Kentucky,36.96469836,-85.93338945,44249.0
2172,21011,Bath,Kentucky,38.14735938,-83.74588932,12500.0
2173,21013,Bell,Kentucky,36.73355174,-83.67766671,26032.0
2174,21015,Boone,Kentucky,38.97065142,-84.72615357,133581.0
2175,21017,Bourbon,Kentucky,38.2054607,-84.21827874,19788.0
2176,21019,Boyd,Kentucky,38.36176608,-82.68652187,46718.0
2177,21021,Boyle,Kentucky,37.62680923,-84.8633779,30060.0
2178,21023,Bracken,Kentucky,38.69158994,-84.08532444,8303.0
2179,21025,Breathitt,Kentucky,37.52333168,-83.31959161,12630.0
2180,21027,Breckinridge,Kentucky,37.77377239,-86.42885017,20477.0
2181,21029,Bullitt,Kentucky,37.97162523,-85.68955617,81676.0
2182,21031,Butler,Kentucky,37.20946153,-86.68748787,12879.0
2183,21033,Caldwell,Kentucky,37.14749129,-87.86948214,12747.0
2184,21035,Calloway,Kentucky,36.62093411,-88.2731593,39001.0
2185,21037,Campbell,Kentucky,38.94384345,-84.37875208,93584.0
2186,21039,Carlisle,Kentucky,36.85372876,-88.9669222,4760.0
2187,21041,Carroll,Kentucky,38.66599534,-85.12601074,10631.0
2188,21043,Carter,Kentucky,38.31690743,-83.05092385,26797.0
2189,21045,Casey,Kentucky,37.32533118,-84.92726209,16159.0
2190,21047,Christian,Kentucky,36.89267803,-87.49055367,70461.0
2191,21049,Clark,Kentucky,37.9689263,-84.14615986,36263.0
2192,21051,Clay,Kentucky,37.16451126,-83.712575,19901.0
2193,21053,Clinton,Kentucky,36.72581156,-85.13377529,10218.0
2194,21055,Crittenden,Kentucky,37.35839237,-88.0882609,8806.0
2195,21057,Cumberland,Kentucky,36.78926125,-85.39050034,6614.0
2196,21059,Daviess,Kentucky,37.73028906,-87.0901948,101511.0
2197,21061,Edmonson,Kentucky,37.21218923,-86.23955613,12150.0
2198,21063,Elliott,Kentucky,38.11624059,-83.09771563,7517.0
2199,21065,Estill,Kentucky,37.69241417,-83.95956369,14106.0
2200,21067,Fayette,Kentucky,38.0368225,-84.45576892,323152.0
2201,21069,Fleming,Kentucky,38.36758311,-83.69657514,14581.0
2202,21071,Floyd,Kentucky,37.56213922,-82.74750924,35589.0
2203,21073,Franklin,Kentucky,38.2379395,-84.87962551,50991.0
2204,21075,Fulton,Kentucky,36.55238827,-89.20140068,5969.0
2205,21077,Gallatin,Kentucky,38.75398691,-84.8558382,8869.0
2206,21079,Garrard,Kentucky,37.6388668,-84.53289319,17666.0
2207,21081,Grant,Kentucky,38.64962758,-84.62415957,25069.0
2208,21083,Graves,Kentucky,36.72292505,-88.65143315,37266.0
2209,21085,Grayson,Kentucky,37.46231118,-86.34248968,26427.0
2210,21087,Green,Kentucky,37.26484328,-85.5540745,10941.0
2211,21089,Greenup,Kentucky,38.54332505,-82.9215658,35098.0
2212,21091,Hancock,Kentucky,37.83766422,-86.78280584,8722.0
2213,21093,Hardin,Kentucky,37.6976111,-85.96319251,110958.0
2214,21095,Harlan,Kentucky,36.85699301,-83.21899516,26010.0
2215,21097,Harrison,Kentucky,38.44188174,-84.32869741,18886.0
2216,21099,Hart,Kentucky,37.29943898,-85.88461055,19035.0
2217,21101,Henderson,Kentucky,37.79344553,-87.57392021,45210.0
2218,21103,Henry,Kentucky,38.44942688,-85.11587507,16126.0
2219,21105,Hickman,Kentucky,36.6794808,-88.97875928,4380.0
2220,21107,Hopkins,Kentucky,37.30939025,-87.54670406,44686.0
2221,21109,Jackson,Kentucky,37.41866422,-83.99825483,13329.0
2222,21111,Jefferson,Kentucky,38.18664655,-85.65931031,766757.0
2223,21113,Jessamine,Kentucky,37.87119786,-84.58252003,54115.0
2224,21115,Johnson,Kentucky,37.85106355,-82.8264322,22188.0
2225,21117,Kenton,Kentucky,38.93950319,-84.53241199,166998.0
2226,21119,Knott,Kentucky,37.35388197,-82.94981134,14806.0
2227,21121,Knox,Kentucky,36.89225732,-83.85403396,31145.0
2228,21123,Larue,Kentucky,37.54567114,-85.70138352,14398.0
2229,21125,Laurel,Kentucky,37.10975748,-84.11321779,60813.0
2230,21127,Lawrence,Kentucky,38.07136018,-82.72882223,15317.0
2231,21129,Lee,Kentucky,37.59645942,-83.71513901,7403.0
2232,21131,Leslie,Kentucky,37.09246661,-83.37999606,9877.0
2233,21133,Letcher,Kentucky,37.12306748,-82.85346474,21553.0
2234,21135,Lewis,Kentucky,38.53184419,-83.37735618,13275.0
2235,21137,Lincoln,Kentucky,37.45475628,-84.6565327,24549.0
2236,21139,Livingston,Kentucky,37.21137452,-88.34797529,9194.0
2237,21141,Logan,Kentucky,36.85949479,-86.877635,27102.0
2238,21143,Lyon,Kentucky,37.02080035,-88.07886257,8210.0
2239,21145,McCracken,Kentucky,37.05350953,-88.70445755,65418.0
2240,21147,McCreary,Kentucky,36.73874143,-84.48102924,17231.0
2241,21149,McLean,Kentucky,37.5301951,-87.26803443,9207.0
2242,21151,Madison,Kentucky,37.71659336,-84.27220275,92987.0
2243,21153,Magoffin,Kentucky,37.70820545,-83.0657714,12161.0
2244,21155,Marion,Kentucky,37.55218078,-85.26898542,19273.0
2245,21157,Marshall,Kentucky,36.8800707,-88.32803576,31100.0
2246,21159,Martin,Kentucky,37.79990579,-82.51247478,11195.0
2247,21161,Mason,Kentucky,38.59471935,-83.82151043,17070.0
2248,21163,Meade,Kentucky,37.96163597,-86.21028219,28572.0
2249,21165,Menifee,Kentucky,37.94090733,-83.59985712,6489.0
2250,21167,Mercer,Kentucky,37.81474237,-84.87488475,21933.0
2251,21169,Metcalfe,Kentucky,36.99459295,-85.63123699,10071.0
2252,21171,Monroe,Kentucky,36.71225341,-85.71596443,10650.0
2253,21173,Montgomery,Kentucky,38.03253032,-83.9145241,28157.0
2254,21175,Morgan,Kentucky,37.92465657,-83.25558245,13309.0
2255,21177,Muhlenberg,Kentucky,37.21425819,-87.14632053,30622.0
2256,21179,Nelson,Kentucky,37.80335779,-85.4657193,46233.0
2257,21181,Nicholas,Kentucky,38.33342292,-84.01889177,7269.0
2258,21183,Ohio,Kentucky,37.47751843,-86.85368087,23994.0
2259,21185,Oldham,Kentucky,38.39791089,-85.448222,66799.0
2260,21187,Owen,Kentucky,38.51679143,-84.82404619,10901.0
2261,21189,Owsley,Kentucky,37.42823949,-83.68811419,4415.0
2262,21191,Pendleton,Kentucky,38.69607718,-84.35599463,14590.0
2263,21193,Perry,Kentucky,37.25023553,-83.22922731,25758.0
2264,21195,Pike,Kentucky,37.47088263,-82.39487445,57876.0
2265,21197,Powell,Kentucky,37.83218794,-83.82553961,12359.0
2266,21199,Pulaski,Kentucky,37.10466131,-84.57629079,64979.0
2267,21201,Robertson,Kentucky,38.51923469,-84.05055616,2108.0
2268,21203,Rockcastle,Kentucky,37.36642393,-84.31176452,16695.0
2269,21205,Rowan,Kentucky,38.19484205,-83.42088935,24460.0
2270,21207,Russell,Kentucky,36.99308373,-85.06070117,17923.0
2271,21209,Scott,Kentucky,38.29622293,-84.5816631,57004.0
2272,21211,Shelby,Kentucky,38.21476019,-85.194223,49024.0
2273,21213,Simpson,Kentucky,36.74058474,-86.58047435,18572.0
2274,21215,Spencer,Kentucky,38.03223971,-85.32749335,19351.0
2275,21217,Taylor,Kentucky,37.3677562,-85.3329931,25769.0
2276,21219,Todd,Kentucky,36.8381152,-87.17878374,12294.0
2277,21221,Trigg,Kentucky,36.80767017,-87.87333656,14651.0
2278,21223,Trimble,Kentucky,38.61056487,-85.33775972,8471.0
2279,21225,Union,Kentucky,37.66166713,-87.94300009,14381.0
2280,21227,Warren,Kentucky,36.99903045,-86.42672751,132896.0
2281,21229,Washington,Kentucky,37.75599461,-85.17407732,12095.0
2282,21231,Wayne,Kentucky,36.80310688,-84.8251971,20333.0
2283,21233,Webster,Kentucky,37.52168356,-87.67989953,12942.0
2284,21235,Whitley,Kentucky,36.75700531,-84.14541217,36264.0
2285,21237,Wolfe,Kentucky,37.73941626,-83.49303612,7157.0
2286,21239,Woodford,Kentucky,38.04178222,-84.7417556,26734.0
2287,22001,Acadia,Louisiana,30.2950649,-92.41419698,62045.0
2288,22003,Allen,Louisiana,30.65385745,-92.82442028,25627.0
2289,22005,Ascension,Louisiana,30.20406249,-90.9132841,126604.0
2290,22007,Assumption,Louisiana,29.89946234,-91.06461642,21891.0
2291,22009,Avoyelles,Louisiana,31.07796211,-92.00079449,40144.0
2292,22011,Beauregard,Louisiana,30.64836518,-93.34173616,37497.0
2293,22013,Bienville,Louisiana,32.34569994,-93.05398492,13241.0
2294,22015,Bossier,Louisiana,32.67932307,-93.60460152,127039.0
2295,22017,Caddo,Louisiana,32.57991587,-93.88375652,240204.0
2296,22019,Calcasieu,Louisiana,30.22931235,-93.35400434,203436.0
2297,22021,Caldwell,Louisiana,32.0902519,-92.11752148,9918.0
2298,22023,Cameron,Louisiana,29.87592238,-93.19310676,6973.0
2299,22025,Catahoula,Louisiana,31.66778967,-91.84526385,9494.0
2300,22027,Claiborne,Louisiana,32.82308512,-92.99526883,15670.0
2301,22029,Concordia,Louisiana,31.44817835,-91.63814433,19259.0
2302,22031,De Soto,Louisiana,32.05457447,-93.74130302,27463.0
2303,22033,East Baton Rouge,Louisiana,30.53842039,-91.09777565,440059.0
2304,22035,East Carroll,Louisiana,32.73926954,-91.23425694,6861.0
2305,22037,East Feliciana,Louisiana,30.84425359,-91.04976723,19135.0
2306,22039,Evangeline,Louisiana,30.72985248,-92.39915924,33395.0
2307,22041,Franklin,Louisiana,32.13675181,-91.67589857,20015.0
2308,22043,Grant,Louisiana,31.59882456,-92.56124347,22389.0
2309,22045,Iberia,Louisiana,29.86803617,-91.75871777,69830.0
2310,22047,Iberville,Louisiana,30.25734305,-91.3499598,32511.0
2311,22049,Jackson,Louisiana,32.30251776,-92.55692092,15744.0
2312,22051,Jefferson,Louisiana,29.74075478,-90.11115756,432493.0
2313,22053,Jefferson Davis,Louisiana,30.26896765,-92.81210004,31368.0
2314,22055,Lafayette,Louisiana,30.2049055,-92.06959876,244390.0
2315,22057,Lafourche,Louisiana,29.52470226,-90.40976986,97614.0
2316,22059,LaSalle,Louisiana,31.67884782,-92.15907765,14892.0
2317,22061,Lincoln,Louisiana,32.6003154,-92.6659741,46742.0
2318,22063,Livingston,Louisiana,30.44143993,-90.73061664,140789.0
2319,22065,Madison,Louisiana,32.36918118,-91.23973355,10951.0
2320,22067,Morehouse,Louisiana,32.81686191,-91.80421614,24874.0
2321,22069,Natchitoches,Louisiana,31.72321584,-93.09816516,38158.0
2322,22071,Orleans,Louisiana,30.06971951,-89.92660315,390144.0
2323,22073,Ouachita,Louisiana,32.47645559,-92.15704172,153279.0
2324,22075,Plaquemines,Louisiana,29.42245447,-89.60322085,23197.0
2325,22077,Pointe Coupee,Louisiana,30.71409502,-91.60209535,21730.0
2326,22079,Rapides,Louisiana,31.19778499,-92.52997303,129648.0
2327,22081,Red River,Louisiana,32.09530039,-93.34213308,8442.0
2328,22083,Richland,Louisiana,32.41391005,-91.76634876,20122.0
2329,22085,Sabine,Louisiana,31.56388699,-93.55433981,23884.0
2330,22087,St. Bernard,Louisiana,29.87761636,-89.51887093,47244.0
2331,22089,St. Charles,Louisiana,29.90709658,-90.35555967,53100.0
2332,22091,St. Helena,Louisiana,30.82210324,-90.71013176,10132.0
2333,22093,St. James,Louisiana,30.02531716,-90.80212061,21096.0
2334,22095,St. John the Baptist,Louisiana,30.12597499,-90.4753503,42837.0
2335,22097,St. Landry,Louisiana,30.59724262,-92.00135806,82124.0
2336,22099,St. Martin,Louisiana,30.13112107,-91.61403569,53431.0
2337,22101,St. Mary,Louisiana,29.69262097,-91.44702164,49348.0
2338,22103,St. Tammany,Louisiana,30.40942847,-89.95642711,260419.0
2339,22105,Tangipahoa,Louisiana,30.62888673,-90.40664996,134758.0
2340,22107,Tensas,Louisiana,32.00760749,-91.32915234,4334.0
2341,22109,Terrebonne,Louisiana,29.37343766,-90.82626855,110461.0
2342,22111,Union,Louisiana,32.83121059,-92.3749373,22108.0
2343,22113,Vermilion,Louisiana,29.83517605,-92.30292538,59511.0
2344,22115,Vernon,Louisiana,31.10884837,-93.18153838,47429.0
2345,22117,Washington,Louisiana,30.85288548,-90.03866652,46194.0
2346,22119,Webster,Louisiana,32.70847669,-93.33121835,38340.0
2347,22121,West Baton Rouge,Louisiana,30.46058217,-91.30989571,26465.0
2348,22123,West Carroll,Louisiana,32.78550125,-91.461201,10830.0
2349,22125,West Feliciana,Louisiana,30.87882871,-91.4148538,15568.0
2350,22127,Winn,Louisiana,31.94449367,-92.63789413,13904.0
2351,23001,Androscoggin,Maine,44.1664747,-70.20380627,108277.0
2352,23003,Aroostook,Maine,46.65926321,-68.59841248,67055.0
2353,23005,Cumberland,Maine,43.8370751,-70.37226999,295003.0
2354,23007,Franklin,Maine,44.97330019,-70.44381045,30199.0
2355,23009,Hancock,Maine,44.59816444,-68.38401854,54987.0
2356,23011,Kennebec,Maine,44.40759555,-69.76738544,122302.0
2357,23013,Knox,Maine,44.11486325,-69.10529169,39772.0
2358,23015,Lincoln,Maine,44.05996956,-69.54227124,34634.0
2359,23017,Oxford,Maine,44.49952995,-70.75682123,57975.0
2360,23019,Penobscot,Maine,45.40194593,-68.65020455,152148.0
2361,23021,Piscataquis,Maine,45.83839062,-69.2860223,16785.0
2362,23023,Sagadahoc,Maine,43.95415864,-69.85074999,35856.0
2363,23025,Somerset,Maine,45.51229767,-69.95995554,50484.0
2364,23027,Waldo,Maine,44.4858305,-69.12061935,39715.0
2365,23029,Washington,Maine,45.01607142,-67.62813524,31379.0
2366,23031,York,Maine,43.47808377,-70.71052375,207641.0
2367,24001,Allegany,Maryland,39.62357628,-78.69280486,70416.0
2368,24003,Anne Arundel,Maryland,39.00670238,-76.60329337,579234.0
2369,24005,Baltimore,Maryland,39.45784712,-76.62911955,827370.0
2370,24009,Calvert,Maryland,38.53961642,-76.56820632,92525.0
2371,24011,Caroline,Maryland,38.87172293,-75.82904158,33406.0
2372,24013,Carroll,Maryland,39.56453592,-77.02373735,168447.0
2373,24015,Cecil,Maryland,39.56647682,-75.94627411,102855.0
2374,24017,Charles,Maryland,38.51092331,-76.98580666,163257.0
2375,24019,Dorchester,Maryland,38.45413522,-76.02752426,31929.0
2376,24021,Frederick,Maryland,39.47296601,-77.39999394,259547.0
2377,24023,Garrett,Maryland,39.52786077,-79.27355126,29014.0
2378,24025,Harford,Maryland,39.55010644,-76.3077594,255441.0
2379,24027,Howard,Maryland,39.25305293,-76.93126208,325690.0
2380,24029,Kent,Maryland,39.24976208,-76.04741541,19422.0
2381,24031,Montgomery,Maryland,39.13676329,-77.20358245,1050688.0
2382,24033,Prince George's,Maryland,38.83070039,-76.8496441,909327.0
2383,24035,Queen Anne's,Maryland,39.06198912,-76.03530977,50381.0
2384,24037,St. Mary's,Maryland,38.30058422,-76.6062928,113510.0
2385,24039,Somerset,Maryland,38.1163542,-75.75118623,25616.0
2386,24041,Talbot,Maryland,38.76618159,-76.10882561,37181.0
2387,24043,Washington,Maryland,39.60835778,-77.82002295,151049.0
2388,24045,Wicomico,Maryland,38.37301947,-75.62705831,103609.0
2389,24047,Worcester,Maryland,38.21274277,-75.33200012,52276.0
2390,24510,Baltimore City,Maryland,39.30211911,-76.61151012,593490.0
2391,25001,Barnstable,Massachusetts,41.72980578,-70.28854339,212990.0
2392,25003,Berkshire,Massachusetts,42.37428441,-73.20524838,124944.0
2393,25005,Bristol,Massachusetts,41.79228404,-71.10872211,565217.0
2394,25007,Dukes,Massachusetts,41.40674725,-70.68763497,17332.0
2395,25009,Essex,Massachusetts,42.6687626,-70.94687179,789034.0
2396,25011,Franklin,Massachusetts,42.58119713,-72.58602547,70180.0
2397,25013,Hampden,Massachusetts,42.13440424,-72.63235561,466372.0
2398,25015,Hampshire,Massachusetts,42.33997957,-72.65898478,160830.0
2399,25017,Middlesex,Massachusetts,42.48607732,-71.39049229,1611699.0
2400,25019,Nantucket,Massachusetts,41.2942019,-70.08774729,11399.0
2401,25021,Norfolk,Massachusetts,42.16073095,-71.20530408,706775.0
2402,25023,Plymouth,Massachusetts,41.94070556,-70.80802823,521202.0
2403,25025,Suffolk,Massachusetts,42.3279514,-71.07850442,803907.0
2404,25027,Worcester,Massachusetts,42.35026951,-71.90493363,830622.0
2405,26001,Alcona,Michigan,44.6846864,-83.59507875,10405.0
2406,26003,Alger,Michigan,46.41292944,-86.60260122,9108.0
2407,26005,Allegan,Michigan,42.59147037,-85.89102866,118081.0
2408,26007,Alpena,Michigan,45.03477666,-83.62212411,28405.0
2409,26009,Antrim,Michigan,44.99690221,-85.15503082,23324.0
2410,26011,Arenac,Michigan,44.0636262,-83.89277559,14883.0
2411,26013,Baraga,Michigan,46.6720582,-88.36363591,8209.0
2412,26015,Barry,Michigan,42.59513984,-85.30834519,61550.0
2413,26017,Bay,Michigan,43.70639106,-83.98731479,103126.0
2414,26019,Benzie,Michigan,44.63899297,-86.01608482,17766.0
2415,26021,Berrien,Michigan,41.95447397,-86.4131308,153401.0
2416,26023,Branch,Michigan,41.91600556,-85.05929476,43517.0
2417,26025,Calhoun,Michigan,42.24633834,-85.00493569,134159.0
2418,26027,Cass,Michigan,41.91522292,-85.99405727,51787.0
2419,26029,Charlevoix,Michigan,45.37790017,-85.19614053,26143.0
2420,26031,Cheboygan,Michigan,45.44787015,-84.50122149,25276.0
2421,26033,Chippewa,Michigan,46.29552653,-84.54353449,37349.0
2422,26035,Clare,Michigan,43.98794227,-84.8481986,30950.0
2423,26037,Clinton,Michigan,42.94400871,-84.60145248,79595.0
2424,26039,Crawford,Michigan,44.68255561,-84.61006219,14029.0
2425,26041,Delta,Michigan,45.9048491,-86.9080745,35784.0
2426,26043,Dickinson,Michigan,46.00999672,-87.86961634,25239.0
2427,26045,Eaton,Michigan,42.59599185,-84.83740035,110268.0
2428,26047,Emmet,Michigan,45.52625509,-84.89083249,33415.0
2429,26049,Genesee,Michigan,43.02244215,-83.70589709,405813.0
2430,26051,Gladwin,Michigan,43.98901072,-84.38774817,25449.0
2431,26053,Gogebic,Michigan,46.40862701,-89.69377193,13975.0
2432,26055,Grand Traverse,Michigan,44.69565625,-85.55585247,93088.0
2433,26057,Gratiot,Michigan,43.29265605,-84.60505416,40711.0
2434,26059,Hillsdale,Michigan,41.88753639,-84.59312019,45605.0
2435,26061,Houghton,Michigan,46.89988536,-88.68495385,35684.0
2436,26063,Huron,Michigan,43.83353985,-83.04078453,30981.0
2437,26065,Ingham,Michigan,42.59716886,-84.37472069,292406.0
2438,26067,Ionia,Michigan,42.94502238,-85.07413319,64697.0
2439,26069,Iosco,Michigan,44.35486835,-83.63484895,25127.0
2440,26071,Iron,Michigan,46.20974132,-88.53136251,11066.0
2441,26073,Isabella,Michigan,43.64060976,-84.84664923,69872.0
2442,26075,Jackson,Michigan,42.24807035,-84.42258681,158510.0
2443,26077,Kalamazoo,Michigan,42.24542231,-85.53038622,265066.0
2444,26079,Kalkaska,Michigan,44.68512729,-85.09085699,18038.0
2445,26081,Kent,Michigan,43.03197711,-85.54934642,656955.0
2446,26083,Keweenaw,Michigan,47.63197653,-88.41434263,2116.0
2447,26085,Lake,Michigan,43.99050893,-85.802173,11853.0
2448,26087,Lapeer,Michigan,43.09052506,-83.22153148,87607.0
2449,26089,Leelanau,Michigan,44.94430054,-85.80150326,21761.0
2450,26091,Lenawee,Michigan,41.89475156,-84.06603727,98451.0
2451,26093,Livingston,Michigan,42.60302282,-83.91297209,191995.0
2452,26095,Luce,Michigan,46.47227431,-85.54471223,6229.0
2453,26097,Mackinac,Michigan,46.07028979,-85.04980537,10799.0
2454,26099,Macomb,Michigan,42.69158356,-82.92752801,873972.0
2455,26101,Manistee,Michigan,44.33352407,-86.05626916,24558.0
2456,26103,Marquette,Michigan,46.4338914,-87.64043701,66699.0
2457,26105,Mason,Michigan,43.99509218,-86.24988902,29144.0
2458,26107,Mecosta,Michigan,43.64064262,-85.32463223,43453.0
2459,26109,Menominee,Michigan,45.58038692,-87.55370409,22780.0
2460,26111,Midland,Michigan,43.64330771,-84.38804374,83156.0
2461,26113,Missaukee,Michigan,44.33772443,-85.09256478,15118.0
2462,26115,Monroe,Michigan,41.92734151,-83.53749864,150500.0
2463,26117,Montcalm,Michigan,43.31082541,-85.15252824,63888.0
2464,26119,Montmorency,Michigan,45.0275929,-84.12696227,9328.0
2465,26121,Muskegon,Michigan,43.29123859,-86.15176712,173566.0
2466,26123,Newaygo,Michigan,43.554374,-85.80070107,48980.0
2467,26125,Oakland,Michigan,42.66090111,-83.38595416,1257584.0
2468,26127,Oceana,Michigan,43.64124435,-86.26726673,26467.0
2469,26129,Ogemaw,Michigan,44.33481032,-84.12725175,20997.0
2470,26131,Ontonagon,Michigan,46.6652262,-89.31390481,5720.0
2471,26133,Osceola,Michigan,43.98992088,-85.32566756,23460.0
2472,26135,Oscoda,Michigan,44.68192279,-84.12939244,8241.0
2473,26137,Otsego,Michigan,45.02085831,-84.59898295,24668.0
2474,26139,Ottawa,Michigan,42.95996803,-85.9969107,291830.0
2475,26141,Presque Isle,Michigan,45.34018577,-83.91498656,12592.0
2476,26143,Roscommon,Michigan,44.33473082,-84.61067651,24019.0
2477,26145,Saginaw,Michigan,43.33433923,-84.0513121,190539.0
2478,26147,St. Clair,Michigan,42.92655373,-82.67937954,159128.0
2479,26149,St. Joseph,Michigan,41.91441767,-85.52797979,60964.0
2480,26151,Sanilac,Michigan,43.42406072,-82.82055898,41170.0
2481,26153,Schoolcraft,Michigan,46.19235734,-86.19972234,8094.0
2482,26155,Shiawassee,Michigan,42.953928,-84.14585902,68122.0
2483,26157,Tuscola,Michigan,43.46606813,-83.41897025,52245.0
2484,26159,Van Buren,Michigan,42.25190229,-86.01939087,75677.0
2485,26161,Washtenaw,Michigan,42.253105,-83.83853204,367601.0
2486,26163,Wayne,Michigan,42.28098405,-83.281255,1749343.0
2487,26165,Wexford,Michigan,44.33853602,-85.57712739,33631.0
2488,27001,Aitkin,Minnesota,46.60962049,-93.4116826,15886.0
2489,27003,Anoka,Minnesota,45.27476015,-93.24604565,356921.0
2490,27005,Becker,Minnesota,46.93479392,-95.67158144,34423.0
2491,27007,Beltrami,Minnesota,47.97373527,-94.93732139,47188.0
2492,27009,Benton,Minnesota,45.69804958,-93.99514135,40889.0
2493,27011,Big Stone,Minnesota,45.42712824,-96.41403739,4991.0
2494,27013,Blue Earth,Minnesota,44.03554215,-94.06699781,67653.0
2495,27015,Brown,Minnesota,44.24205652,-94.72562874,25008.0
2496,27017,Carlton,Minnesota,46.59180601,-92.67601019,35871.0
2497,27019,Carver,Minnesota,44.82017001,-93.8009918,105089.0
2498,27021,Cass,Minnesota,46.95043611,-94.32603968,29779.0
2499,27023,Chippewa,Minnesota,45.02343421,-95.56403693,11800.0
2500,27025,Chisago,Minnesota,45.5021011,-92.90861945,56579.0
2501,27027,Clay,Minnesota,46.89289518,-96.48761922,64222.0
2502,27029,Clearwater,Minnesota,47.57992111,-95.37790562,8818.0
2503,27031,Cook,Minnesota,47.90504893,-90.52629546,5463.0
2504,27033,Cottonwood,Minnesota,44.00715262,-95.18138802,11196.0
2505,27035,Crow Wing,Minnesota,46.48096553,-94.06755609,65055.0
2506,27037,Dakota,Minnesota,44.67172617,-93.06299363,429021.0
2507,27039,Dodge,Minnesota,44.02238415,-92.86244324,20934.0
2508,27041,Douglas,Minnesota,45.93348491,-95.45335469,38141.0
2509,27043,Faribault,Minnesota,43.67381499,-93.94787458,13653.0
2510,27045,Fillmore,Minnesota,43.67394126,-92.08980382,21067.0
2511,27047,Freeborn,Minnesota,43.67385583,-93.34884422,30281.0
2512,27049,Goodhue,Minnesota,44.40849741,-92.7234195,46340.0
2513,27051,Grant,Minnesota,45.93424769,-96.01139609,5972.0
2514,27053,Hennepin,Minnesota,45.00761521,-93.47694895,1265843.0
2515,27055,Houston,Minnesota,43.67129565,-91.49143057,18600.0
2516,27057,Hubbard,Minnesota,47.10778564,-94.91693868,21491.0
2517,27059,Isanti,Minnesota,45.56181234,-93.29487636,40596.0
2518,27061,Itasca,Minnesota,47.51009045,-93.63092229,45130.0
2519,27063,Jackson,Minnesota,43.67423373,-95.15398258,9846.0
2520,27065,Kanabec,Minnesota,45.9459309,-93.29275192,16337.0
2521,27067,Kandiyohi,Minnesota,45.1526059,-95.00586446,43199.0
2522,27069,Kittson,Minnesota,48.77754106,-96.78317184,4298.0
2523,27071,Koochiching,Minnesota,48.24539665,-93.78352843,12229.0
2524,27073,Lac qui Parle,Minnesota,44.9973857,-96.17488219,6623.0
2525,27075,Lake,Minnesota,47.64270764,-91.44557998,10641.0
2526,27077,Lake of the Woods,Minnesota,48.77217001,-94.90274472,3740.0
2527,27079,Le Sueur,Minnesota,44.37136597,-93.72844721,28887.0
2528,27081,Lincoln,Minnesota,44.41311883,-96.26688165,5639.0
2529,27083,Lyon,Minnesota,44.41327865,-95.83806103,25474.0
2530,27085,McLeod,Minnesota,44.82367677,-94.27287017,35893.0
2531,27087,Mahnomen,Minnesota,47.32557075,-95.80921485,5527.0
2532,27089,Marshall,Minnesota,48.35825983,-96.37017407,9336.0
2533,27091,Martin,Minnesota,43.67429718,-94.55099908,19683.0
2534,27093,Meeker,Minnesota,45.12328869,-94.52839455,23222.0
2535,27095,Mille Lacs,Minnesota,45.93705297,-93.63236823,26277.0
2536,27097,Morrison,Minnesota,46.01265363,-94.27341528,33386.0
2537,27099,Mower,Minnesota,43.67142874,-92.75234549,40062.0
2538,27101,Murray,Minnesota,44.02216709,-95.76328482,8194.0
2539,27103,Nicollet,Minnesota,44.35291112,-94.24710352,34274.0
2540,27105,Nobles,Minnesota,43.67434621,-95.75329576,21629.0
2541,27107,Norman,Minnesota,47.32628443,-96.45620947,6375.0
2542,27109,Olmsted,Minnesota,44.00374114,-92.40209944,158293.0
2543,27111,Otter Tail,Minnesota,46.40846929,-95.70835255,58746.0
2544,27113,Pennington,Minnesota,48.06642577,-96.0370814,14119.0
2545,27115,Pine,Minnesota,46.12105238,-92.74070188,29579.0
2546,27117,Pipestone,Minnesota,44.02301619,-96.25841142,9126.0
2547,27119,Polk,Minnesota,47.77372465,-96.40134647,31364.0
2548,27121,Pope,Minnesota,45.58606667,-95.44451209,11249.0
2549,27123,Ramsey,Minnesota,45.01625271,-93.09872295,550321.0
2550,27125,Red Lake,Minnesota,47.87197525,-96.09561104,4055.0
2551,27127,Redwood,Minnesota,44.40555844,-95.25207021,15170.0
2552,27129,Renville,Minnesota,44.72836381,-94.94553734,14548.0
2553,27131,Rice,Minnesota,44.3543376,-93.29658715,66972.0
2554,27133,Rock,Minnesota,43.67482683,-96.25296832,9315.0
2555,27135,Roseau,Minnesota,48.77501878,-95.81079919,15165.0
2556,27137,St. Louis,Minnesota,47.6048407,-92.46879855,199070.0
2557,27139,Scott,Minnesota,44.6490231,-93.53340251,149013.0
2558,27141,Sherburne,Minnesota,45.44447208,-93.77617511,97238.0
2559,27143,Sibley,Minnesota,44.5796592,-94.23164924,14865.0
2560,27145,Stearns,Minnesota,45.55192576,-94.61078221,161075.0
2561,27147,Steele,Minnesota,44.02240351,-93.22627088,36649.0
2562,27149,Stevens,Minnesota,45.58613007,-96.00163705,9805.0
2563,27151,Swift,Minnesota,45.2829032,-95.68264092,9266.0
2564,27153,Todd,Minnesota,46.06996226,-94.89785296,24664.0
2565,27155,Traverse,Minnesota,45.77298854,-96.47062949,3259.0
2566,27157,Wabasha,Minnesota,44.28424356,-92.23121312,21627.0
2567,27159,Wadena,Minnesota,46.58589171,-94.96968506,13682.0
2568,27161,Waseca,Minnesota,44.02211116,-93.58720034,18612.0
2569,27163,Washington,Minnesota,45.03864533,-92.88429635,262440.0
2570,27165,Watonwan,Minnesota,43.97823903,-94.61413846,10897.0
2571,27167,Wilkin,Minnesota,46.35721532,-96.4684375,6207.0
2572,27169,Winona,Minnesota,43.98772283,-91.78081305,50484.0
2573,27171,Wright,Minnesota,45.17297924,-93.96234781,138377.0
2574,27173,Yellow Medicine,Minnesota,44.71710183,-95.86842453,9709.0
2575,28001,Adams,Mississippi,31.47669768,-91.35326037,30693.0
2576,28003,Alcorn,Mississippi,34.88084463,-88.57996173,36953.0
2577,28005,Amite,Mississippi,31.17467303,-90.80501621,12297.0
2578,28007,Attala,Mississippi,33.08658803,-89.57838564,18174.0
2579,28009,Benton,Mississippi,34.81681228,-89.18945516,8259.0
2580,28011,Bolivar,Mississippi,33.79696941,-90.87372121,30628.0
2581,28013,Calhoun,Mississippi,33.93683395,-89.33686647,14361.0
2582,28015,Carroll,Mississippi,33.44834567,-89.91994479,9947.0
2583,28017,Chickasaw,Mississippi,33.91983202,-88.9481545,17103.0
2584,28019,Choctaw,Mississippi,33.34598242,-89.24809382,8210.0
2585,28021,Claiborne,Mississippi,31.97061673,-90.90702196,8988.0
2586,28023,Clarke,Mississippi,32.04158545,-88.6889622,15541.0
2587,28025,Clay,Mississippi,33.65358105,-88.77784255,19316.0
2588,28027,Coahoma,Mississippi,34.22772299,-90.60415045,22124.0
2589,28029,Copiah,Mississippi,31.86977774,-90.44565118,28065.0
2590,28031,Covington,Mississippi,31.63225413,-89.55389939,18636.0
2591,28033,DeSoto,Mississippi,34.87625235,-89.99091418,184945.0
2592,28035,Forrest,Mississippi,31.18961454,-89.25832496,74897.0
2593,28037,Franklin,Mississippi,31.47786634,-90.89672989,7713.0
2594,28039,George,Mississippi,30.86259065,-88.64436789,24500.0
2595,28041,Greene,Mississippi,31.21444233,-88.63922281,13586.0
2596,28043,Grenada,Mississippi,33.77036166,-89.80245083,20758.0
2597,28045,Hancock,Mississippi,30.41830223,-89.48851033,47632.0
2598,28047,Harrison,Mississippi,30.51359752,-89.12467576,208080.0
2599,28049,Hinds,Mississippi,32.2656285,-90.44435448,231840.0
2600,28051,Holmes,Mississippi,33.12345854,-90.08923538,17010.0
2601,28053,Humphreys,Mississippi,33.12825718,-90.52252707,8064.0
2602,28055,Issaquena,Mississippi,32.72531359,-90.97392828,1327.0
2603,28057,Itawamba,Mississippi,34.27993475,-88.3606733,23390.0
2604,28059,Jackson,Mississippi,30.54020656,-88.64184064,143617.0
2605,28061,Jasper,Mississippi,32.01922104,-89.11786866,16383.0
2606,28063,Jefferson,Mississippi,31.73397872,-91.03764977,6990.0
2607,28065,Jefferson Davis,Mississippi,31.56884708,-89.8267099,11128.0
2608,28067,Jones,Mississippi,31.62257767,-89.168969,68098.0
2609,28069,Kemper,Mississippi,32.75462946,-88.64105766,9742.0
2610,28071,Lafayette,Mississippi,34.35687874,-89.48490961,54019.0
2611,28073,Lamar,Mississippi,31.20572971,-89.5077704,63343.0
2612,28075,Lauderdale,Mississippi,32.40419769,-88.66229662,74125.0
2613,28077,Lawrence,Mississippi,31.55147224,-90.10841127,12586.0
2614,28079,Leake,Mississippi,32.7536828,-89.52402044,22786.0
2615,28081,Lee,Mississippi,34.2918775,-88.68149954,85436.0
2616,28083,Leflore,Mississippi,33.55545125,-90.29900733,28183.0
2617,28085,Lincoln,Mississippi,31.53288662,-90.45391915,34153.0
2618,28087,Lowndes,Mississippi,33.47386518,-88.4419153,58595.0
2619,28089,Madison,Mississippi,32.63389156,-90.03513564,106272.0
2620,28091,Marion,Mississippi,31.23132643,-89.8209217,24573.0
2621,28093,Marshall,Mississippi,34.76216286,-89.50299462,35294.0
2622,28095,Monroe,Mississippi,33.89236763,-88.4808438,35252.0
2623,28097,Montgomery,Mississippi,33.49419589,-89.61729103,9775.0
2624,28099,Neshoba,Mississippi,32.75339664,-89.11726492,29118.0
2625,28101,Newton,Mississippi,32.40021118,-89.11843336,21018.0
2626,28103,Noxubee,Mississippi,33.11009499,-88.56949061,10417.0
2627,28105,Oktibbeha,Mississippi,33.42491685,-88.87905132,49587.0
2628,28107,Panola,Mississippi,34.36398677,-89.95064249,34192.0
2629,28109,Pearl River,Mississippi,30.77090935,-89.58677275,55535.0
2630,28111,Perry,Mississippi,31.17161885,-88.99281835,11973.0
2631,28113,Pike,Mississippi,31.17507789,-90.40392572,39288.0
2632,28115,Pontotoc,Mississippi,34.226046,-89.03636807,32174.0
2633,28117,Prentiss,Mississippi,34.61810501,-88.51986294,25126.0
2634,28119,Quitman,Mississippi,34.25157572,-90.28908,6792.0
2635,28121,Rankin,Mississippi,32.26469147,-89.94537876,155271.0
2636,28123,Scott,Mississippi,32.4067041,-89.53789439,28124.0
2637,28125,Sharkey,Mississippi,32.88149103,-90.8159538,4321.0
2638,28127,Simpson,Mississippi,31.91282117,-89.91716179,26658.0
2639,28129,Smith,Mississippi,32.01744532,-89.50644846,15916.0
2640,28131,Stone,Mississippi,30.79187949,-89.11547539,18336.0
2641,28133,Sunflower,Mississippi,33.60192578,-90.58882684,25110.0
2642,28135,Tallahatchie,Mississippi,33.95339918,-90.1729398,13809.0
2643,28137,Tate,Mississippi,34.65133709,-89.94485778,28321.0
2644,28139,Tippah,Mississippi,34.76872156,-88.90988194,22015.0
2645,28141,Tishomingo,Mississippi,34.74023475,-88.23917219,19383.0
2646,28143,Tunica,Mississippi,34.64967704,-90.37481167,9632.0
2647,28145,Union,Mississippi,34.49162015,-89.00776006,28815.0
2648,28147,Walthall,Mississippi,31.14971548,-90.10446654,14286.0
2649,28149,Warren,Mississippi,32.35810271,-90.83352619,45381.0
2650,28151,Washington,Mississippi,33.28392041,-90.94196237,43909.0
2651,28153,Wayne,Mississippi,31.64135687,-88.69573913,20183.0
2652,28155,Webster,Mississippi,33.61300486,-89.28392912,9689.0
2653,28157,Wilkinson,Mississippi,31.16078225,-91.31018819,8630.0
2654,28159,Winston,Mississippi,33.08747908,-89.03391385,17955.0
2655,28161,Yalobusha,Mississippi,34.02824175,-89.7076205,12108.0
2656,28163,Yazoo,Mississippi,32.77890365,-90.39656148,29690.0
2657,29001,Adair,Missouri,40.19058551,-92.60078167,25343.0
2658,29003,Andrew,Missouri,39.98492163,-94.80163024,17712.0
2659,29005,Atchison,Missouri,40.43238737,-95.42970639,5143.0
2660,29007,Audrain,Missouri,39.215877,-91.84242683,25388.0
2661,29009,Barry,Missouri,36.70978521,-93.82919888,35789.0
2662,29011,Barton,Missouri,37.50207671,-94.34757022,11754.0
2663,29013,Bates,Missouri,38.25271289,-94.34113157,16172.0
2664,29015,Benton,Missouri,38.29503305,-93.28756116,19443.0
2665,29017,Bollinger,Missouri,37.32449052,-90.02725304,12133.0
2666,29019,Boone,Missouri,38.99186229,-92.30723575,180463.0
2667,29021,Buchanan,Missouri,39.65816401,-94.80138942,87364.0
2668,29023,Butler,Missouri,36.71462476,-90.40421163,42478.0
2669,29025,Caldwell,Missouri,39.65620858,-93.98308093,9020.0
2670,29027,Callaway,Missouri,38.83674754,-91.92186505,44743.0
2671,29029,Camden,Missouri,38.02199522,-92.76083747,46305.0
2672,29031,Cape Girardeau,Missouri,37.38489388,-89.6843587,78871.0
2673,29033,Carroll,Missouri,39.42762566,-93.50626255,8679.0
2674,29035,Carter,Missouri,36.94160441,-90.96051322,5982.0
2675,29037,Cass,Missouri,38.64789422,-94.353399,105780.0
2676,29039,Cedar,Missouri,37.72391475,-93.85445441,14349.0
2677,29041,Chariton,Missouri,39.51499357,-92.9629191,7426.0
2678,29043,Christian,Missouri,36.9711783,-93.18537118,88595.0
2679,29045,Clark,Missouri,40.41040752,-91.73661677,6797.0
2680,29047,Clay,Missouri,39.31132056,-94.41850862,249948.0
2681,29049,Clinton,Missouri,39.6013098,-94.40465394,20387.0
2682,29051,Cole,Missouri,38.50455671,-92.27860244,76745.0
2683,29053,Cooper,Missouri,38.844478,-92.80896081,17709.0
2684,29055,Crawford,Missouri,37.97663738,-91.30528104,23920.0
2685,29057,Dade,Missouri,37.431814,-93.8503345,7561.0
2686,29059,Dallas,Missouri,37.6811355,-93.02127031,16878.0
2687,29061,Daviess,Missouri,39.96145298,-93.98519678,8278.0
2688,29063,DeKalb,Missouri,39.89201062,-94.40476508,12547.0
2689,29065,Dent,Missouri,37.60663134,-91.50790473,15573.0
2690,29067,Douglas,Missouri,36.9325593,-92.49905109,13185.0
2691,29069,Dunklin,Missouri,36.27167174,-90.09122243,29131.0
2692,29071,Franklin,Missouri,38.41127108,-91.07522826,103967.0
2693,29073,Gasconade,Missouri,38.43947277,-91.50847147,14706.0
2694,29075,Gentry,Missouri,40.21097916,-94.40944419,6571.0
2695,29077,Greene,Missouri,37.2575872,-93.34230916,293086.0
2696,29079,Grundy,Missouri,40.11406587,-93.56509276,9850.0
2697,29081,Harrison,Missouri,40.35570088,-93.99222144,8352.0
2698,29083,Henry,Missouri,38.38482826,-93.79293734,21824.0
2699,29085,Hickory,Missouri,37.94163617,-93.3203037,9544.0
2700,29087,Holt,Missouri,40.09799248,-95.2163888,4403.0
2701,29089,Howard,Missouri,39.1435761,-92.69756691,10001.0
2702,29091,Howell,Missouri,36.77383887,-91.88683935,40117.0
2703,29093,Iron,Missouri,37.55487945,-90.7735296,10125.0
2704,29095,Jackson,Missouri,39.01002188,-94.34724536,703011.0
2705,29097,Jasper,Missouri,37.20351921,-94.34050458,121328.0
2706,29099,Jefferson,Missouri,38.25926778,-90.53870896,225081.0
2707,29101,Johnson,Missouri,38.74719601,-93.80691168,54062.0
2708,29103,Knox,Missouri,40.12699751,-92.14780832,3959.0
2709,29105,Laclede,Missouri,37.65896829,-92.5888493,35723.0
2710,29107,Lafayette,Missouri,39.06986886,-93.78076396,32708.0
2711,29109,Lawrence,Missouri,37.10626634,-93.83293097,38355.0
2712,29111,Lewis,Missouri,40.09673161,-91.72070156,9776.0
2713,29113,Lincoln,Missouri,39.05345619,-90.95588181,59013.0
2714,29115,Linn,Missouri,39.87001769,-93.10704106,11920.0
2715,29117,Livingston,Missouri,39.78110272,-93.54645978,15227.0
2716,29119,McDonald,Missouri,36.62869595,-94.34867205,22837.0
2717,29121,Macon,Missouri,39.83049768,-92.56453089,15117.0
2718,29123,Madison,Missouri,37.47865134,-90.3467143,12088.0
2719,29125,Maries,Missouri,38.16193985,-91.92249662,8697.0
2720,29127,Marion,Missouri,39.80601912,-91.62203062,28530.0
2721,29129,Mercer,Missouri,40.42212303,-93.5682959,3617.0
2722,29131,Miller,Missouri,38.21450288,-92.42610898,25619.0
2723,29133,Mississippi,Missouri,36.82516239,-89.29505753,13180.0
2724,29135,Moniteau,Missouri,38.63571781,-92.57976951,16132.0
2725,29137,Monroe,Missouri,39.49593978,-92.00043978,8644.0
2726,29139,Montgomery,Missouri,38.94022054,-91.47000721,11551.0
2727,29141,Morgan,Missouri,38.4181765,-92.88791859,20627.0
2728,29143,New Madrid,Missouri,36.59666326,-89.66070007,17076.0
2729,29145,Newton,Missouri,36.90519407,-94.3394104,58236.0
2730,29147,Nodaway,Missouri,40.36079813,-94.88133008,22092.0
2731,29149,Oregon,Missouri,36.68710164,-91.4033755,10529.0
2732,29151,Osage,Missouri,38.46036182,-91.8613635,13615.0
2733,29153,Ozark,Missouri,36.64916339,-92.44459066,9174.0
2734,29155,Pemiscot,Missouri,36.2130572,-89.78742322,15805.0
2735,29157,Perry,Missouri,37.70660776,-89.82741088,19136.0
2736,29159,Pettis,Missouri,38.72798918,-93.28471706,42339.0
2737,29161,Phelps,Missouri,37.87736118,-91.79351727,44573.0
2738,29163,Pike,Missouri,39.34310674,-91.16980779,18302.0
2739,29165,Platte,Missouri,39.38154439,-94.77068479,104418.0
2740,29167,Polk,Missouri,37.6162296,-93.39828174,32149.0
2741,29169,Pulaski,Missouri,37.82462075,-92.20783203,52607.0
2742,29171,Putnam,Missouri,40.47942497,-93.02042674,4696.0
2743,29173,Ralls,Missouri,39.52817427,-91.51838643,10309.0
2744,29175,Randolph,Missouri,39.44007257,-92.4971374,24748.0
2745,29177,Ray,Missouri,39.3537468,-93.98905745,23018.0
2746,29179,Reynolds,Missouri,37.36085952,-90.97009925,6270.0
2747,29181,Ripley,Missouri,36.65460667,-90.85990261,13288.0
2748,29183,St. Charles,Missouri,38.77875681,-90.66662425,402022.0
2749,29185,St. Clair,Missouri,38.03699437,-93.77631447,9397.0
2750,29186,Ste. Genevieve,Missouri,37.89090059,-90.1949941,17894.0
2751,29187,St. Francois,Missouri,37.81214171,-90.47598685,67215.0
2752,29189,St. Louis,Missouri,38.6377004,-90.4458375,994205.0
2753,29195,Saline,Missouri,39.13734288,-93.20259964,22761.0
2754,29197,Schuyler,Missouri,40.46921489,-92.52311943,4660.0
2755,29199,Scotland,Missouri,40.45214695,-92.14709064,4902.0
2756,29201,Scott,Missouri,37.05588075,-89.56474493,38280.0
2757,29203,Shannon,Missouri,37.15772072,-91.40190382,8166.0
2758,29205,Shelby,Missouri,39.79742518,-92.07634971,5930.0
2759,29207,Stoddard,Missouri,36.85571651,-89.9444155,29025.0
2760,29209,Stone,Missouri,36.75000327,-93.45256475,31952.0
2761,29211,Sullivan,Missouri,40.2099105,-93.11150106,6089.0
2762,29213,Taney,Missouri,36.65465345,-93.04075153,55928.0
2763,29215,Texas,Missouri,37.31728859,-91.96564727,25398.0
2764,29217,Vernon,Missouri,37.8457799,-94.34127305,20563.0
2765,29219,Warren,Missouri,38.76529479,-91.16124662,35649.0
2766,29221,Washington,Missouri,37.96130078,-90.87948158,24730.0
2767,29223,Wayne,Missouri,37.11303869,-90.46001416,12873.0
2768,29225,Webster,Missouri,37.2813734,-92.876329,39592.0
2769,29227,Worth,Missouri,40.47945588,-94.42328751,2013.0
2770,29229,Wright,Missouri,37.27029221,-92.46914488,18289.0
2771,29510,St. Louis City,Missouri,38.63555736,-90.24349225,300576.0
2772,30001,Beaverhead,Montana,45.13434354,-112.8984694,9453.0
2773,30003,Big Horn,Montana,45.42335905,-107.492347,13319.0
2774,30005,Blaine,Montana,48.43175214,-108.9582723,6681.0
2775,30007,Broadwater,Montana,46.33277565,-111.4955813,6237.0
2776,30009,Carbon,Montana,45.22850116,-109.0274047,10725.0
2777,30011,Carter,Montana,45.5197966,-104.5395536,1252.0
2778,30013,Cascade,Montana,47.30797024,-111.3467922,81366.0
2779,30015,Chouteau,Montana,47.88084126,-110.4353362,5635.0
2780,30017,Custer,Montana,46.25319932,-105.5737526,11402.0
2781,30019,Daniels,Montana,48.78420029,-105.5476343,1690.0
2782,30021,Dawson,Montana,47.26584855,-104.8944417,8613.0
2783,30023,Deer Lodge,Montana,46.05953325,-113.073353,9140.0
2784,30025,Fallon,Montana,46.33478338,-104.4183565,2846.0
2785,30027,Fergus,Montana,47.26331584,-109.2245206,11050.0
2786,30029,Flathead,Montana,48.29575866,-114.0520569,103806.0
2787,30031,Gallatin,Montana,45.54486106,-111.1692571,114434.0
2788,30033,Garfield,Montana,47.27545948,-107.0002351,1258.0
2789,30035,Glacier,Montana,48.70513576,-112.9934235,13753.0
2790,30037,Golden Valley,Montana,46.3816474,-109.1768522,821.0
2791,30039,Granite,Montana,46.4060522,-113.4414186,3379.0
2792,30041,Hill,Montana,48.62879827,-110.1129252,16484.0
2793,30043,Jefferson,Montana,46.14907081,-112.094396,12221.0
2794,30045,Judith Basin,Montana,47.04581276,-110.2660688,2007.0
2795,30047,Lake,Montana,47.64514965,-114.0898013,30458.0
2796,30049,Lewis and Clark,Montana,47.12610041,-112.394698,69432.0
2797,30051,Liberty,Montana,48.56084317,-111.024307,2337.0
2798,30053,Lincoln,Montana,48.54265777,-115.4046155,19980.0
2799,30055,McCone,Montana,47.64469406,-105.7944994,1664.0
2800,30057,Madison,Montana,45.30080065,-111.9173017,8600.0
2801,30059,Meagher,Montana,46.59907074,-110.8898557,1862.0
2802,30061,Mineral,Montana,47.15283992,-115.0015239,4397.0
2803,30063,Missoula,Montana,47.03728583,-113.9213508,119600.0
2804,30065,Musselshell,Montana,46.49684637,-108.39498,4633.0
2805,30067,Park,Montana,45.48965095,-110.5264394,16606.0
2806,30069,Petroleum,Montana,47.1182463,-108.2508876,487.0
2807,30071,Phillips,Montana,48.25936577,-107.9128511,3954.0
2808,30073,Pondera,Montana,48.22773388,-112.2252703,5911.0
2809,30075,Powder River,Montana,45.39617714,-105.636738,1682.0
2810,30077,Powell,Montana,46.85538891,-112.9359164,6890.0
2811,30079,Prairie,Montana,46.86048047,-105.379384,1077.0
2812,30081,Ravalli,Montana,46.08520862,-114.1189164,43806.0
2813,30083,Richland,Montana,47.78668011,-104.5610786,10803.0
2814,30085,Roosevelt,Montana,48.29607488,-105.0079268,11004.0
2815,30087,Rosebud,Montana,46.23397237,-106.729288,8937.0
2816,30089,Sanders,Montana,47.67657534,-115.1329916,12113.0
2817,30091,Sheridan,Montana,48.72085833,-104.503829,3309.0
2818,30093,Silver Bow,Montana,45.90018933,-112.6620092,34915.0
2819,30095,Stillwater,Montana,45.67071407,-109.3950061,9642.0
2820,30097,Sweet Grass,Montana,45.81367654,-109.9425686,3737.0
2821,30099,Teton,Montana,47.83741052,-112.2410688,6147.0
2822,30101,Toole,Montana,48.65577551,-111.6942414,4736.0
2823,30103,Treasure,Montana,46.2097322,-107.2666516,696.0
2824,30105,Valley,Montana,48.36435097,-106.6669635,7396.0
2825,30107,Wheatland,Montana,46.46652491,-109.8464636,2126.0
2826,30109,Wibaux,Montana,46.95925154,-104.2510927,969.0
2827,30111,Yellowstone,Montana,45.93955949,-108.2691486,161300.0
2828,31001,Adams,Nebraska,40.5244942,-98.50117804,31363.0
2829,31003,Antelope,Nebraska,42.17695516,-98.0666283,6298.0
2830,31005,Arthur,Nebraska,41.56896142,-101.6959559,463.0
2831,31007,Banner,Nebraska,41.54634427,-103.7114332,745.0
2832,31009,Blaine,Nebraska,41.91311716,-99.97677845,465.0
2833,31011,Boone,Nebraska,41.70759415,-98.06737183,5192.0
2834,31013,Box Butte,Nebraska,42.22079243,-103.0878834,10783.0
2835,31015,Boyd,Nebraska,42.8997274,-98.76486568,1919.0
2836,31017,Brown,Nebraska,42.43018907,-99.92904055,2955.0
2837,31019,Buffalo,Nebraska,40.85486962,-99.07500296,49659.0
2838,31021,Burt,Nebraska,41.85056773,-96.32605633,6459.0
2839,31023,Butler,Nebraska,41.22703692,-97.13106306,8016.0
2840,31025,Cass,Nebraska,40.90899107,-96.13971217,26248.0
2841,31027,Cedar,Nebraska,42.5988851,-97.25311951,8402.0
2842,31029,Chase,Nebraska,40.5237198,-101.6978026,3924.0
2843,31031,Cherry,Nebraska,42.54502621,-101.1244332,5689.0
2844,31033,Cheyenne,Nebraska,41.21999357,-102.9941693,8910.0
2845,31035,Clay,Nebraska,40.52439441,-98.05126296,6203.0
2846,31037,Colfax,Nebraska,41.57486951,-97.0868542,10709.0
2847,31039,Cuming,Nebraska,41.91637624,-96.78730772,8846.0
2848,31041,Custer,Nebraska,41.39374521,-99.72805369,10777.0
2849,31043,Dakota,Nebraska,42.39040144,-96.56656425,20026.0
2850,31045,Dawes,Nebraska,42.71985036,-103.1313774,8589.0
2851,31047,Dawson,Nebraska,40.87028216,-99.8201461,23595.0
2852,31049,Deuel,Nebraska,41.11168186,-102.3333331,1794.0
2853,31051,Dixon,Nebraska,42.49188363,-96.86782408,5636.0
2854,31053,Dodge,Nebraska,41.58071748,-96.65598179,36565.0
2855,31055,Douglas,Nebraska,41.29518299,-96.15085305,571327.0
2856,31057,Dundy,Nebraska,40.17638677,-101.6876522,1693.0
2857,31059,Fillmore,Nebraska,40.52458567,-97.59646937,5462.0
2858,31061,Franklin,Nebraska,40.17636348,-98.95299073,2979.0
2859,31063,Frontier,Nebraska,40.52993007,-100.3924658,2627.0
2860,31065,Furnas,Nebraska,40.17642064,-99.91247454,4676.0
2861,31067,Gage,Nebraska,40.26186809,-96.68946704,21513.0
2862,31069,Garden,Nebraska,41.61703149,-102.3313973,1837.0
2863,31071,Garfield,Nebraska,41.91428955,-98.99111827,1969.0
2864,31073,Gosper,Nebraska,40.51481965,-99.83020279,1990.0
