,fips,county,state,lat,long,population,clusters_10,clusters_9,clusters_8,clusters_7,clusters_6,clusters_5,clusters_4,clusters_3,clusters_2,clusters_20,clusters_19,clusters_18,clusters_17,clusters_16,clusters_15,clusters_14,clusters_13,clusters_12,clusters_11
0,01001,Autauga,Alabama,32.53952745,-86.64408227,55869,10,1,2,7,2,4,3,1,2,10,8,17,17,7,12,3,8,1,3
1,01003,Baldwin,Alabama,30.72774991,-87.72207058,223234,10,1,2,7,2,4,3,1,2,7,8,17,3,6,5,12,8,6,3
2,01005,Barbour,Alabama,31.868263,-85.3871286,24686,4,1,4,7,2,4,3,1,2,7,10,10,16,2,3,10,4,1,3
3,01007,Bibb,Alabama,32.99642064,-87.1251146,22394,4,1,4,1,2,4,3,1,2,10,8,17,17,7,12,3,8,1,3
4,01009,Blount,Alabama,33.98210918,-86.56790593,57826,10,6,2,7,2,4,3,1,2,18,17,18,3,6,5,12,8,6,6
5,01011,Bullock,Alabama,32.10030533,-85.71265535,10101,4,1,4,1,6,1,4,3,1,6,12,14,16,2,3,10,4,8,11
6,01013,Butler,Alabama,31.75300095,-86.68057478,19448,4,1,4,7,2,4,3,1,2,7,10,10,7,7,12,3,4,1,3
7,01015,Calhoun,Alabama,33.77483727,-85.82630386,113605,10,6,2,7,2,4,3,1,2,4,17,18,3,6,5,12,8,6,10
8,01017,Chambers,Alabama,32.91360079,-85.39072749,33254,10,1,2,7,2,4,3,1,2,7,10,10,16,6,5,12,4,6,3
9,01019,Cherokee,Alabama,34.17805983,-85.60638968,26196,9,4,3,1,4,5,2,1,1,19,19,6,15,9,9,6,12,4,2
10,01021,Chilton,Alabama,32.85044126,-86.7173256,44428,9,4,4,1,4,5,3,1,1,2,16,6,2,9,9,6,12,4,2
11,01023,Choctaw,Alabama,32.02227341,-88.2656443,12589,1,7,8,3,5,3,2,3,1,3,4,8,12,14,1,9,6,5,9
12,01025,Clarke,Alabama,31.68099859,-87.83548597,23622,4,1,4,1,2,4,3,1,2,2,8,17,17,7,12,3,12,1,3
13,01027,Clay,Alabama,33.26984193,-85.85836077,13235,9,4,5,3,5,5,2,1,1,19,19,3,15,9,9,6,12,4,2
14,01029,Cleburne,Alabama,33.67679204,-85.52005899,14910,2,6,2,7,2,4,3,1,2,8,9,13,9,3,6,14,2,9,6
15,01031,Coffee,Alabama,31.39932826,-85.98901039,52342,10,6,2,7,2,4,3,1,2,4,17,18,3,6,5,12,8,6,3
16,01033,Colbert,Alabama,34.69847452,-87.80168544,55241,9,4,3,1,4,5,2,1,1,19,19,3,15,9,9,6,12,4,2
17,01035,Conecuh,Alabama,31.43401703,-86.99320044,12067,9,4,4,1,4,5,2,1,1,6,16,6,2,9,9,6,12,4,2
18,01037,Coosa,Alabama,32.93690146,-86.24847739,10663,4,4,4,1,4,5,3,1,2,2,16,6,2,7,12,3,12,1,2
19,01039,Covington,Alabama,31.2477854,-86.45050893,37049,10,6,2,7,2,4,3,1,2,4,17,18,3,6,5,12,8,6,3
20,01041,Crenshaw,Alabama,31.72941803,-86.31593104,13772,10,1,2,7,2,4,3,1,2,10,8,17,17,7,12,3,8,1,3
21,01043,Cullman,Alabama,34.13020303,-86.86888037,83768,9,4,3,1,4,5,3,1,2,2,16,6,2,9,9,8,12,4,2
22,01045,Dale,Alabama,31.43037123,-85.61095742,49172,10,6,2,7,2,4,3,1,2,4,17,18,3,6,5,12,8,6,10
23,01047,Dallas,Alabama,32.32688101,-87.1086671,37196,9,4,4,1,4,5,2,1,1,2,16,6,2,9,9,6,12,4,2
24,01049,DeKalb,Alabama,34.45946862,-85.80782906,71513,2,4,3,7,4,4,3,1,2,2,9,13,9,7,6,3,7,9,6
25,01051,Elmore,Alabama,32.59785413,-86.14415284,81209,10,6,2,7,2,4,3,1,2,18,17,18,3,6,5,12,8,6,3
26,01053,Escambia,Alabama,31.1256789,-87.15918694,36633,10,1,2,7,2,4,3,1,2,7,17,18,3,6,5,12,8,6,3
27,01055,Etowah,Alabama,34.04567266,-86.04051873,102268,2,6,2,7,2,4,3,1,2,10,8,17,17,7,12,3,8,9,3
28,01057,Fayette,Alabama,33.72076938,-87.73886638,16302,2,6,2,5,3,2,1,2,2,18,14,2,10,12,2,14,2,9,6
29,01059,Franklin,Alabama,34.44235334,-87.84289505,31362,9,4,3,5,4,5,2,1,1,19,19,3,15,9,9,8,7,4,2
30,01061,Geneva,Alabama,31.09389027,-85.83572839,26271,10,6,2,7,2,4,3,2,2,4,17,18,3,6,5,12,3,6,10
31,01063,Greene,Alabama,32.85504247,-87.95684022,8111,4,1,4,7,2,4,3,1,2,7,8,17,17,7,12,3,4,1,3
32,01065,Hale,Alabama,32.76039258,-87.63284988,14651,4,1,4,1,2,4,3,1,2,7,10,10,16,2,12,3,4,1,3
33,01067,Henry,Alabama,31.51148016,-85.24267944,17205,10,6,2,7,2,4,3,1,2,4,17,18,3,6,5,12,8,6,10
34,01069,Houston,Alabama,31.15197924,-85.29939599,105882,10,6,2,7,2,4,3,1,2,4,17,18,3,6,5,12,8,6,10
35,01071,Jackson,Alabama,34.78144169,-85.99750489,51626,9,4,3,5,4,5,3,1,2,2,9,13,9,9,6,8,7,4,2
36,01073,Jefferson,Alabama,33.55554728,-86.895063,658573,4,1,4,1,2,4,3,1,1,7,10,10,16,2,3,10,4,1,3
37,01075,Lamar,Alabama,33.77995024,-88.09668032,13805,2,5,3,5,3,2,1,2,2,8,14,13,10,3,6,14,2,9,6
38,01077,Lauderdale,Alabama,34.90171875,-87.65624729,92729,9,4,3,1,4,5,3,1,2,2,16,6,2,9,9,6,12,4,2
39,01079,Lawrence,Alabama,34.52041498,-87.31069453,32924,9,4,3,5,4,5,2,1,1,2,16,6,2,9,9,6,12,4,2
40,01081,Lee,Alabama,32.60154883,-85.35132246,164542,4,1,2,7,2,4,3,1,2,7,1,2,7,12,2,12,4,1,3
41,01083,Limestone,Alabama,34.81185586,-86.98310072,98915,4,1,4,1,4,4,3,1,2,2,1,2,7,7,12,3,12,1,3
42,01085,Lowndes,Alabama,32.1597283,-86.65158371,9726,4,1,4,1,6,1,3,1,1,6,10,10,16,2,3,10,4,1,3
43,01087,Macon,Alabama,32.38759944,-85.69267724,18068,4,1,4,1,6,4,3,1,1,7,10,10,16,2,3,10,4,1,3
44,01089,Madison,Alabama,34.76327133,-86.55069633,372909,4,1,4,1,4,5,3,1,1,2,16,6,2,2,12,6,12,1,2
45,01091,Marengo,Alabama,32.24767634,-87.78796182,18863,10,6,2,7,2,4,3,1,2,18,17,18,3,6,5,12,8,6,6
46,01093,Marion,Alabama,34.13697363,-87.88704173,29709,9,4,3,5,4,5,3,1,2,2,9,13,9,9,6,8,7,4,2
47,01095,Marshall,Alabama,34.36975964,-86.30486727,96774,9,4,4,1,4,5,3,1,2,2,9,6,17,9,9,8,7,4,2
48,01097,Mobile,Alabama,30.78472347,-88.20842409,413210,4,1,4,1,2,4,3,1,1,7,10,10,16,2,3,10,4,1,3
49,01099,Monroe,Alabama,31.56729412,-87.36995001,20733,4,1,4,1,4,4,3,1,1,10,16,6,17,7,12,3,12,1,3
50,01101,Montgomery,Alabama,32.2206831,-86.20969272,226486,4,1,4,1,6,4,3,1,1,7,10,10,16,2,3,10,4,1,3
51,01103,Morgan,Alabama,34.45500589,-86.85475946,119679,9,4,3,1,4,5,2,1,1,2,16,6,2,9,9,6,12,4,2
52,01105,Perry,Alabama,32.64048341,-87.29770589,8923,4,1,4,7,2,4,3,1,2,7,10,10,16,7,12,3,4,1,3
53,01107,Pickens,Alabama,33.28094866,-88.08818103,19930,4,1,4,1,4,5,3,1,1,2,16,6,2,2,12,6,12,1,2
54,01109,Pike,Alabama,31.80396383,-85.9408295,33114,10,6,2,7,2,4,3,1,2,4,17,18,3,6,5,12,8,6,10
55,01111,Randolph,Alabama,33.29526734,-85.45708831,22722,4,1,4,1,2,4,3,1,1,7,10,10,17,7,12,3,4,1,3
56,01113,Russell,Alabama,32.28725256,-85.18415324,57961,10,6,2,7,2,4,3,1,2,18,17,18,3,6,5,12,2,6,10
57,01115,St. Clair,Alabama,33.71902176,-86.31029372,89512,4,1,4,1,2,4,3,1,2,7,8,17,17,7,12,3,4,1,3
58,01117,Shelby,Alabama,33.26879845,-86.66232561,217702,4,1,4,7,2,4,3,1,2,7,1,10,7,7,12,3,4,1,3
59,01119,Sumter,Alabama,32.59117397,-88.19916205,12427,1,7,8,3,5,3,2,3,1,3,4,8,12,8,1,9,6,5,9
60,01121,Talladega,Alabama,33.37823223,-86.16886178,79978,4,1,4,1,2,4,3,1,2,2,8,17,17,7,12,3,12,1,3
61,01123,Tallapoosa,Alabama,32.86698258,-85.79833053,40367,4,1,4,1,4,5,3,1,1,2,16,6,2,7,12,6,12,1,2
62,01125,Tuscaloosa,Alabama,33.28726072,-87.52556818,209355,9,4,4,1,4,5,2,1,1,2,16,6,2,9,9,6,12,4,2
63,01127,Walker,Alabama,33.80270512,-87.30027177,63521,9,4,3,5,4,5,3,1,2,8,9,13,9,3,6,8,7,4,2
64,01129,Washington,Alabama,31.4092794,-88.20689944,16326,9,4,4,1,4,4,3,1,2,10,8,17,17,7,12,3,12,1,2
65,01131,Wilcox,Alabama,31.98773215,-87.30891118,10373,9,4,3,1,4,5,2,1,1,2,16,6,2,9,9,6,12,4,2
66,01133,Winston,Alabama,34.15030532,-87.37325922,23629,9,4,3,5,4,5,3,1,2,8,9,13,9,3,6,8,7,4,2
67,04001,Apache,Arizona,35.39465006,-109.4892383,71887,2,5,3,5,4,5,3,1,2,18,1,2,7,12,2,14,2,9,6
68,04003,Cochise,Arizona,31.87934684,-109.7516088,125922,6,5,3,5,4,5,3,1,2,13,11,4,14,10,7,1,11,11,7
69,04005,Coconino,Arizona,35.83883429,-111.7707178,143476,7,8,5,3,5,3,2,3,1,20,7,5,4,4,14,6,1,12,4
70,04007,Gila,Arizona,33.80190085,-110.8132779,54018,2,5,6,2,3,2,1,2,2,18,1,2,10,12,2,14,2,9,6
71,04009,Graham,Arizona,32.93166885,-109.8882178,38837,2,6,2,7,3,2,1,2,2,17,14,12,10,12,11,14,2,9,10
72,04011,Greenlee,Arizona,33.21498827,-109.2405279,9498,2,5,6,5,3,2,1,2,2,1,11,11,10,12,2,14,2,10,6
73,04012,La Paz,Arizona,33.72854224,-113.9810029,21108,9,4,3,5,4,5,3,1,2,2,16,6,7,9,12,3,12,4,2
74,04013,Maricopa,Arizona,33.34835867,-112.4918154,4485414,9,4,4,1,4,5,2,1,1,2,16,6,2,9,7,6,12,11,2
75,04015,Mohave,Arizona,35.70471703,-113.7577902,212181,9,4,3,5,4,5,3,1,1,2,16,6,2,9,9,6,12,4,2
76,04017,Navajo,Arizona,35.3997715,-110.3218983,110924,6,5,6,5,3,2,1,2,2,18,1,2,7,12,2,14,2,2,1
77,04019,Pima,Arizona,32.0971334,-111.7890033,1047279,9,4,3,5,4,5,2,1,1,2,16,4,2,9,7,6,12,11,2
78,04021,Pinal,Arizona,32.90525627,-111.3449483,462789,9,4,3,5,4,5,2,1,1,2,16,6,2,9,7,6,12,11,2
79,04023,Santa Cruz,Arizona,31.52508998,-110.8479088,46498,1,7,8,3,5,3,2,3,1,3,4,8,12,14,1,9,6,5,9
80,04025,Yavapai,Arizona,34.59933926,-112.5538588,235099,3,2,6,2,3,2,1,2,2,15,14,9,10,5,11,4,3,7,5
81,04027,Yuma,Arizona,32.76895712,-113.9066674,213787,1,7,8,3,5,3,2,3,1,3,4,8,12,8,1,9,6,5,9
82,05001,Arkansas,Arkansas,34.29145151,-91.37277296,17486,4,1,4,1,2,4,3,1,1,7,10,10,16,2,3,10,4,1,3
83,05003,Ashley,Arkansas,33.19153461,-91.7698471,19657,4,1,4,1,4,5,3,1,1,2,16,6,2,7,12,3,12,1,2
84,05005,Baxter,Arkansas,36.28784385,-92.33782872,41932,10,6,2,7,2,4,3,1,2,4,17,18,3,6,5,12,8,6,10
85,05007,Benton,Arkansas,36.33644656,-94.25680817,279141,4,1,4,1,4,4,3,1,1,2,16,6,2,7,12,3,12,1,3
86,05009,Boone,Arkansas,36.3084504,-93.09374925,37432,10,6,2,7,2,4,3,1,2,18,1,2,7,6,5,12,8,6,3
87,05011,Bradley,Arkansas,33.46755808,-92.15980837,10763,9,4,4,1,4,5,3,1,1,2,16,6,2,9,12,6,12,1,2
88,05013,Calhoun,Arkansas,33.55598792,-92.49974403,5189,10,6,2,7,2,4,3,1,2,18,17,18,3,6,5,12,8,6,3
89,05015,Carroll,Arkansas,36.3403856,-93.54270261,28380,10,6,2,7,2,4,3,1,2,4,17,18,3,6,5,12,8,6,3
90,05017,Chicot,Arkansas,33.26458973,-91.29539209,10118,4,1,4,1,6,4,3,1,1,7,10,10,16,2,3,10,4,1,3
91,05019,Clark,Arkansas,34.04613432,-93.17484713,22320,4,1,4,4,6,4,3,1,2,7,10,10,16,2,3,10,4,1,3
92,05021,Clay,Arkansas,36.36826212,-90.4148172,14551,4,1,4,7,2,4,3,1,2,2,8,17,17,7,12,3,8,1,3
93,05023,Cleburne,Arkansas,35.53864922,-92.02640019,24919,4,1,4,1,2,4,3,1,2,2,1,2,7,7,12,3,4,1,3
94,05025,Cleveland,Arkansas,33.89723187,-92.18537045,7956,4,1,4,1,4,5,3,1,1,6,16,6,2,2,3,10,12,1,3
95,05027,Columbia,Arkansas,33.21230701,-93.22642793,23457,4,1,4,7,2,4,3,1,2,7,10,10,16,2,3,10,4,1,3
96,05029,Conway,Arkansas,35.26205537,-92.70506566,20846,4,1,4,1,4,5,3,1,1,6,16,6,2,2,3,10,4,1,3
97,05031,Craighead,Arkansas,35.83018283,-90.63235729,110332,8,9,7,4,6,4,3,1,1,7,10,10,16,2,3,10,4,8,11
98,05033,Crawford,Arkansas,35.58928601,-94.2446814,63257,10,6,2,7,2,4,3,1,2,18,8,17,3,6,5,3,8,6,3
99,05035,Crittenden,Arkansas,35.21247318,-90.30839406,47955,4,1,4,1,6,1,4,3,1,7,10,10,16,2,3,10,4,8,11
100,05037,Cross,Arkansas,35.29631396,-90.77185818,16419,4,1,4,1,4,5,3,1,1,2,16,6,2,2,3,10,4,1,3
101,05039,Dallas,Arkansas,33.97042763,-92.65167437,7009,4,1,4,1,2,4,3,1,1,7,10,10,16,2,3,10,4,1,3
102,05041,Desha,Arkansas,33.83011025,-91.25500948,11361,4,1,4,1,4,5,3,1,1,6,16,6,2,2,3,10,12,1,2
103,05043,Drew,Arkansas,33.59035001,-91.71777921,18219,4,1,4,1,4,5,2,1,1,6,16,6,2,2,3,6,12,1,2
104,05045,Faulkner,Arkansas,35.14719007,-92.33717519,126007,4,1,4,1,4,5,3,1,1,6,16,6,2,2,3,10,12,1,2
105,05047,Franklin,Arkansas,35.51202821,-93.89299569,17715,10,1,2,7,2,4,3,1,2,10,8,17,3,6,5,12,8,6,3
106,05049,Fulton,Arkansas,36.38177105,-91.81729127,12477,2,6,2,7,3,2,1,2,2,18,1,2,10,12,2,14,2,9,6
107,05051,Garland,Arkansas,34.57692074,-93.14921604,99386,10,6,2,7,2,4,3,1,2,4,17,18,3,6,5,12,8,6,10
108,05053,Grant,Arkansas,34.29017991,-92.42320562,18265,4,1,4,7,2,4,3,1,2,7,8,10,17,7,12,3,4,1,3
109,05055,Greene,Arkansas,36.1173546,-90.55832668,45325,4,1,4,1,2,4,3,1,2,7,10,10,16,2,3,10,4,1,3
110,05057,Hempstead,Arkansas,33.73325583,-93.66935133,21532,10,6,2,7,2,4,3,1,2,7,17,18,3,6,5,12,4,6,3
111,05059,Hot Spring,Arkansas,34.31709259,-92.95396325,33771,10,6,2,7,2,4,3,1,2,18,17,18,3,6,5,12,8,6,3
112,05061,Howard,Arkansas,34.09007427,-93.9934871,13202,4,1,4,4,6,4,3,1,2,7,10,10,16,2,3,10,4,1,3
113,05063,Independence,Arkansas,35.74242707,-91.57001641,37825,2,6,2,7,2,4,3,1,2,18,1,2,7,12,2,14,2,9,6
114,05065,Izard,Arkansas,36.09604046,-91.90847954,13629,2,6,2,7,2,4,3,2,2,18,1,2,7,12,2,14,2,2,1
115,05067,Jackson,Arkansas,35.59802983,-91.21494602,16719,2,6,2,7,3,2,1,2,2,18,1,2,10,12,2,14,2,9,6
116,05069,Jefferson,Arkansas,34.26767081,-91.92619839,66824,4,1,4,1,6,4,3,1,1,6,10,10,16,2,3,10,4,1,3
117,05071,Johnson,Arkansas,35.56759135,-93.46036368,26578,10,6,2,7,2,4,3,1,2,4,17,18,3,6,5,12,8,6,6
118,05073,Lafayette,Arkansas,33.24116713,-93.60677071,6624,10,6,2,7,2,4,3,1,2,7,17,18,3,6,5,12,4,6,3
119,05075,Lawrence,Arkansas,36.04188196,-91.10867198,16406,2,6,2,7,2,4,3,1,2,18,1,2,7,12,2,14,2,9,6
120,05077,Lee,Arkansas,34.78498904,-90.78383866,8857,4,1,4,1,6,4,3,1,1,7,10,10,16,2,3,10,4,1,11
121,05079,Lincoln,Arkansas,33.95317155,-91.74002806,13024,4,1,4,1,6,5,2,3,1,6,16,6,2,2,3,10,12,1,11
122,05081,Little River,Arkansas,33.70375665,-94.23468591,12259,4,1,4,1,2,4,3,1,2,7,10,10,16,2,12,3,4,1,3
123,05083,Logan,Arkansas,35.21413234,-93.71951016,21466,10,6,2,7,2,4,3,1,2,4,17,18,3,6,5,12,8,6,10
124,05085,Lonoke,Arkansas,34.75392199,-91.88742357,73309,4,1,4,1,2,4,3,1,2,7,10,10,16,2,3,10,4,1,3
125,05087,Madison,Arkansas,36.01038185,-93.72524943,16576,10,6,2,7,2,4,3,2,2,4,17,18,3,6,5,12,2,6,10
126,05089,Marion,Arkansas,36.26844485,-92.68451899,16694,10,6,2,7,3,2,1,2,2,17,14,12,1,5,11,4,3,6,10
127,05091,Miller,Arkansas,33.31403423,-93.89285258,43257,10,6,2,7,2,4,3,1,2,4,17,18,3,6,5,12,2,6,10
128,05093,Mississippi,Arkansas,35.76271485,-90.0519437,40651,4,1,7,4,6,4,3,1,2,7,10,10,16,2,3,10,4,1,3
129,05095,Monroe,Arkansas,34.6815935,-91.20540287,6701,7,8,5,1,4,1,2,3,1,6,12,14,2,4,3,6,12,12,4
130,05097,Montgomery,Arkansas,34.53704874,-93.65824478,8986,10,6,2,7,2,4,3,1,2,4,17,18,3,6,5,12,8,6,10
131,05099,Nevada,Arkansas,33.66340119,-93.30632432,8252,4,1,4,1,4,5,3,1,1,2,16,10,2,2,3,10,4,1,3
132,05101,Newton,Arkansas,35.91947491,-93.21612969,7753,10,6,2,7,2,4,3,2,2,4,17,18,3,6,5,12,2,6,10
133,05103,Ouachita,Arkansas,33.58839816,-92.87795984,23382,4,1,4,7,2,4,3,1,2,7,10,10,16,2,3,10,4,1,3
134,05105,Perry,Arkansas,34.9459153,-92.94372564,10455,10,6,2,7,2,4,3,1,2,18,1,2,7,12,2,12,2,6,3
135,05107,Phillips,Arkansas,34.43268455,-90.84800154,17782,4,1,4,1,2,4,3,1,1,7,10,10,16,2,3,10,4,1,3
136,05109,Pike,Arkansas,34.16250414,-93.65789349,10718,4,1,4,7,2,4,3,1,2,7,8,17,17,7,12,3,8,1,3
137,05111,Poinsett,Arkansas,35.57433534,-90.66268713,23528,4,1,4,7,2,4,3,1,2,7,10,10,16,2,3,10,4,1,3
138,05113,Polk,Arkansas,34.48254879,-94.22728802,19964,10,6,2,7,2,4,3,1,2,4,17,18,3,6,5,12,8,6,10
139,05115,Pope,Arkansas,35.44871474,-93.03212219,64072,4,1,4,1,4,5,3,1,1,2,16,6,17,7,12,3,12,1,2
140,05117,Prairie,Arkansas,34.83624419,-91.55162157,8062,4,1,4,1,2,4,3,1,1,7,8,10,17,7,12,3,4,1,3
141,05119,Pulaski,Arkansas,34.77054088,-92.31355101,391911,7,8,5,6,1,1,4,3,1,6,12,14,8,2,3,10,9,8,11
142,05121,Randolph,Arkansas,36.3415714,-91.02455531,17958,10,6,2,7,2,4,1,2,2,4,17,18,3,6,11,12,3,6,10
143,05123,St. Francis,Arkansas,35.02201976,-90.74828138,24994,4,1,4,1,6,1,4,3,1,6,12,10,16,2,3,10,4,1,11
144,05125,Saline,Arkansas,34.64916145,-92.67583224,122437,4,1,4,1,6,5,3,1,1,6,10,10,16,2,3,10,4,1,3
145,05127,Scott,Arkansas,34.85588887,-94.0632176,10281,10,6,2,7,2,4,3,1,2,4,17,18,3,6,5,12,8,6,10
146,05129,Searcy,Arkansas,35.9109364,-92.69936482,7881,4,1,4,7,2,4,3,1,2,18,1,2,7,12,2,10,4,1,3
147,05131,Sebastian,Arkansas,35.19605503,-94.27162713,127827,4,1,4,7,2,4,3,1,2,7,8,17,17,7,12,3,8,1,3
148,05133,Sevier,Arkansas,33.99780401,-94.2424869,17007,2,6,2,7,2,4,3,1,2,18,1,2,7,12,2,14,2,9,6
149,05135,Sharp,Arkansas,36.16258158,-91.47819342,17442,2,6,2,7,2,4,1,2,2,18,14,12,10,5,11,14,3,6,10
150,05137,Stone,Arkansas,35.86251946,-92.15684085,12506,2,6,6,2,3,2,1,2,2,17,14,12,10,5,11,14,2,9,10
151,05139,Union,Arkansas,33.16887091,-92.59746952,38682,4,1,4,1,6,4,3,1,2,7,10,10,16,2,3,10,4,1,3
152,05141,Van Buren,Arkansas,35.58095779,-92.51295036,16545,10,6,2,7,2,4,3,1,2,18,1,2,7,12,2,12,2,6,3
153,05143,Washington,Arkansas,35.976844,-94.21800746,239187,4,1,4,1,4,5,3,1,1,6,16,6,2,2,3,10,12,1,3
154,05145,White,Arkansas,35.25688493,-91.74908296,78753,4,1,4,7,2,4,3,1,2,18,1,2,7,7,12,3,8,1,3
155,05147,Woodruff,Arkansas,35.18902527,-91.2439489,6320,10,6,2,7,2,4,3,1,2,4,17,18,3,6,5,12,8,6,10
156,05149,Yell,Arkansas,35.00292371,-93.41171338,21341,4,1,2,7,2,4,3,1,2,10,8,17,7,7,12,3,8,1,3
157,06001,Alameda,California,37.64629437,-121.8929271,1671329,7,8,5,3,5,3,2,3,1,20,6,15,5,16,14,2,1,12,4
158,06003,Alpine,California,38.59678594,-119.8223594,1129,3,2,2,2,3,2,1,2,2,17,2,12,1,5,11,4,3,7,10
159,06005,Amador,California,38.44583082,-120.65696,39752,9,4,3,5,4,5,3,1,2,2,9,13,9,9,6,8,7,4,6
160,06007,Butte,California,39.66727762,-121.6005252,219186,4,4,4,1,4,5,3,1,2,2,16,6,17,7,12,3,12,1,2
161,06009,Calaveras,California,38.20537103,-120.552913,45905,2,4,3,5,4,5,3,1,2,2,9,13,7,12,6,14,2,9,6
162,06011,Colusa,California,39.17881957,-122.2331726,21547,10,6,2,7,2,4,3,1,2,10,8,17,3,6,5,12,8,6,3
163,06013,Contra Costa,California,37.91923498,-121.9289527,1153526,7,8,5,3,5,3,2,3,1,20,7,5,5,4,14,2,1,12,4
164,06015,Del Norte,California,41.74228275,-123.8974063,27812,10,6,2,7,2,4,3,1,2,10,8,17,9,3,6,3,8,6,6
165,06017,El Dorado,California,38.77965956,-120.5233166,192843,4,1,4,1,4,5,3,1,1,6,16,6,2,2,3,6,12,1,2
166,06019,Fresno,California,36.75733899,-119.6466953,999101,9,4,3,1,4,5,2,1,1,19,19,6,15,9,9,6,12,4,2
167,06021,Glenn,California,39.59875897,-122.3938452,28393,10,6,2,7,2,4,3,1,2,10,8,17,17,7,12,3,8,6,3
168,06023,Humboldt,California,40.69923009,-123.876044,135558,7,8,5,1,4,5,2,3,1,6,16,6,2,4,9,6,12,12,2
169,06025,Imperial,California,33.0393082,-115.3669042,181215,1,7,8,3,5,3,2,3,1,20,4,5,12,8,1,9,6,5,9
170,06027,Inyo,California,36.51112084,-117.4111978,18039,7,8,5,4,6,1,4,3,1,12,13,14,4,4,13,13,9,8,11
171,06029,Kern,California,35.34329425,-118.7277796,900202,2,6,2,5,2,4,3,1,2,18,1,2,7,12,2,14,2,9,6
172,06031,Kings,California,36.07409056,-119.8159973,152940,2,4,3,5,4,5,3,1,2,8,9,13,9,3,6,8,7,9,6
173,06033,Lake,California,39.10124298,-122.7536244,64386,2,6,2,7,2,4,3,1,2,18,17,18,3,6,5,14,8,9,6
174,06035,Lassen,California,40.67311306,-120.5935099,30573,2,6,2,7,2,4,3,1,2,18,1,2,7,12,2,14,2,9,6
175,06037,Los Angeles,California,34.30828379,-118.2282411,10039107,1,8,5,3,5,3,2,3,1,9,6,15,5,16,14,2,1,12,4
176,06039,Madera,California,37.21513971,-119.7665589,157327,9,4,3,5,4,5,3,1,2,2,9,13,9,9,9,8,7,4,2
177,06041,Marin,California,38.07122463,-122.7210631,258826,7,8,5,6,1,3,4,3,1,9,6,15,5,16,14,2,1,12,4
178,06043,Mariposa,California,37.57978556,-119.9073334,17203,2,5,6,5,3,2,1,2,2,18,1,2,7,12,2,14,2,9,6
179,06045,Mendocino,California,39.4381191,-123.3911313,86749,9,4,3,5,4,5,2,1,1,19,19,6,15,9,9,6,12,4,2
180,06047,Merced,California,37.18922369,-120.7209035,277680,9,4,3,1,4,5,2,1,1,2,16,6,2,9,9,6,12,4,2
181,06049,Modoc,California,41.58965602,-120.7244817,8841,3,2,6,2,3,2,1,2,2,17,2,12,1,5,11,4,3,7,10
182,06051,Mono,California,37.93899289,-118.8872409,14444,8,9,7,4,6,1,4,3,1,12,15,14,8,13,13,13,9,8,11
183,06053,Monterey,California,36.21862405,-121.2413397,434061,1,7,8,3,5,3,2,3,1,20,4,3,12,8,1,9,6,5,9
184,06055,Napa,California,38.50735751,-122.332839,137744,7,8,5,3,5,3,2,3,1,20,7,5,5,16,14,2,1,12,4
185,06057,Nevada,California,39.30394768,-120.7627281,99755,9,4,5,3,4,5,2,1,1,19,19,3,15,9,9,6,12,4,2
186,06059,Orange,California,33.70147516,-117.7645998,3175692,1,8,5,3,5,3,2,3,1,9,6,15,5,16,14,2,1,12,4
187,06061,Placer,California,39.06167234,-120.7240569,398329,4,4,4,1,4,5,2,1,1,6,16,6,2,2,3,6,12,1,2
188,06063,Plumas,California,40.00355989,-120.8395236,18807,2,2,6,2,3,2,1,2,2,17,14,12,10,12,11,14,2,9,6
189,06065,Riverside,California,33.74314981,-115.9933578,2470546,7,8,5,3,5,3,2,3,1,20,7,5,5,16,14,2,1,12,4
190,06067,Sacramento,California,38.45106826,-121.3425374,1552058,7,8,5,3,5,3,2,3,1,20,7,5,5,16,14,2,1,12,4
191,06069,San Benito,California,36.60308176,-121.069975,62808,7,8,5,3,5,3,2,3,1,20,6,5,5,16,14,2,1,12,4
192,06071,San Bernardino,California,34.84060306,-116.1774685,2180085,7,8,5,3,5,3,2,3,1,9,6,15,5,16,14,2,1,12,4
193,06073,San Diego,California,33.03484597,-116.7365326,3338330,1,8,5,3,5,3,2,3,1,20,6,5,5,16,14,2,1,12,4
194,06075,San Francisco,California,37.75215114,-122.4385672,881549,7,8,5,6,1,1,4,3,1,12,12,14,5,4,14,2,1,12,4
195,06077,San Joaquin,California,37.93433732,-121.2730061,762148,7,8,5,3,5,3,2,3,1,20,7,5,5,4,14,2,1,12,4
196,06079,San Luis Obispo,California,35.38822029,-120.4039028,283111,9,4,4,1,4,5,2,3,1,6,16,6,2,4,9,6,12,4,2
197,06081,San Mateo,California,37.4228808,-122.3275546,766573,7,8,5,3,5,3,2,3,1,20,7,5,5,16,14,2,1,12,4
198,06083,Santa Barbara,California,34.65329488,-120.0188492,446499,1,8,5,3,5,3,2,3,1,20,6,15,5,16,14,2,1,12,4
199,06085,Santa Clara,California,37.23104908,-121.6970462,1927852,1,8,5,3,5,3,2,3,1,9,6,15,5,16,14,2,1,12,4
200,06087,Santa Cruz,California,37.05580291,-122.0066524,273213,1,7,8,3,5,3,2,3,1,20,4,5,12,8,1,9,6,5,9
201,06089,Shasta,California,40.76391419,-122.0396884,180080,2,6,2,7,2,4,3,2,2,18,14,12,10,3,2,14,2,9,6
202,06091,Sierra,California,39.57713498,-120.5200701,3005,2,6,2,7,3,2,1,2,2,18,1,2,7,12,2,14,2,2,1
203,06093,Siskiyou,California,41.59198861,-122.5407434,43539,2,6,4,7,2,4,3,1,2,10,8,17,17,7,12,3,8,1,3
204,06095,Solano,California,38.26827353,-121.9357113,447643,9,8,5,1,4,5,2,3,1,6,16,6,2,4,9,6,12,4,2
205,06097,Sonoma,California,38.52746429,-122.8862506,494336,7,8,5,3,5,3,2,3,1,20,7,5,5,16,14,2,1,12,4
206,06099,Stanislaus,California,37.55862499,-120.9970722,550660,9,4,4,1,4,5,3,1,1,2,16,6,2,9,9,6,12,4,2
207,06101,Sutter,California,39.03417539,-121.6945899,96971,9,4,4,1,4,5,3,1,1,2,16,6,2,9,9,6,12,4,2
208,06103,Tehama,California,40.12570935,-122.2370171,65084,10,6,2,7,2,4,3,2,2,4,17,18,3,6,5,14,2,6,10
209,06105,Trinity,California,40.6491767,-123.114713,12285,2,6,2,7,3,2,1,2,2,17,14,12,10,3,11,14,2,9,6
210,06107,Tulare,California,36.22026558,-118.8020203,466195,9,4,3,5,4,5,3,1,2,2,9,13,9,9,6,8,7,4,2
211,06109,Tuolumne,California,38.02644018,-119.9525093,54478,2,5,3,5,4,5,3,1,2,18,1,2,7,12,2,14,2,9,6
212,06111,Ventura,California,34.44465746,-119.0910613,846006,7,8,5,3,5,3,2,3,1,9,6,15,5,16,14,2,1,12,4
213,06113,Yolo,California,38.68278902,-121.9018288,220500,7,8,5,1,6,1,2,3,1,6,12,14,2,4,3,6,1,12,4
214,06115,Yuba,California,39.26255932,-121.3535644,78668,4,4,4,1,4,5,3,1,1,2,16,6,2,7,12,3,12,1,2
215,08001,Adams,Colorado,39.87432092,-104.3362578,517421,7,8,5,6,1,1,4,3,1,9,6,15,5,16,14,2,1,12,4
216,08003,Alamosa,Colorado,37.57250606,-105.7885451,16233,6,5,3,5,3,2,1,2,2,1,11,11,14,10,15,1,11,10,7
217,08005,Arapahoe,Colorado,39.64977461,-104.3353617,656590,7,3,1,6,1,3,4,3,1,9,6,15,5,16,14,2,1,12,8
218,08007,Archuleta,Colorado,37.19474156,-107.0476867,14029,6,8,5,4,6,5,2,3,1,13,13,4,4,10,7,1,11,11,7
219,08009,Baca,Colorado,37.31940883,-102.5603223,3581,3,2,6,2,3,2,1,2,2,1,14,12,10,15,15,7,5,10,5
220,08011,Bent,Colorado,37.95474293,-103.0720195,5577,3,2,6,2,3,2,1,2,2,17,14,12,1,5,11,4,3,7,10
221,08013,Boulder,Colorado,40.09313619,-105.3546767,326196,7,8,5,3,5,3,2,3,1,9,6,15,5,16,14,2,1,12,4
222,08014,Broomfield,Colorado,39.95998787,-105.0566324,70465,7,8,5,3,5,3,4,3,1,9,6,15,5,16,14,2,1,12,4
223,08015,Chaffee,Colorado,38.74745778,-106.1926573,20356,7,8,5,6,6,1,4,3,1,12,12,14,4,4,13,13,9,12,11
224,08017,Cheyenne,Colorado,38.82777431,-102.6032558,1831,3,2,6,2,3,2,1,2,2,14,2,7,6,5,10,4,5,7,5
225,08019,Clear Creek,Colorado,39.68864463,-105.6463118,9700,7,8,5,4,6,1,4,3,1,12,12,14,4,4,13,13,9,12,4
226,08021,Conejos,Colorado,37.201606,-106.1917488,8205,6,5,3,5,3,2,1,2,2,1,11,11,14,10,15,1,11,10,7
227,08023,Costilla,Colorado,37.27732493,-105.4276548,3887,6,5,3,5,3,2,1,2,2,1,11,11,14,10,15,1,11,10,7
228,08025,Crowley,Colorado,38.32608609,-103.7844965,6061,2,5,6,5,3,2,1,2,2,18,14,2,10,12,2,14,2,9,6
229,08027,Custer,Colorado,38.10883162,-105.3683478,5068,3,2,6,2,3,2,1,2,2,14,18,7,6,15,10,7,5,10,5
230,08029,Delta,Colorado,38.86246243,-107.8631342,31162,3,2,6,2,3,2,1,2,2,17,14,12,10,5,11,4,5,7,5
231,08031,Denver,Colorado,39.76018276,-104.8725695,727211,5,3,1,6,1,3,4,3,1,9,6,15,11,16,4,5,13,3,8
232,08033,Dolores,Colorado,37.75208676,-108.5211585,2055,3,2,6,2,3,2,1,2,2,14,18,7,6,15,10,7,5,7,5
233,08035,Douglas,Colorado,39.33133796,-104.930001,351154,7,8,5,6,1,3,4,3,1,9,6,15,5,16,14,2,1,12,4
234,08037,Eagle,Colorado,39.62754308,-106.6933637,55127,5,3,1,6,1,1,4,3,1,11,5,16,11,11,4,5,13,3,8
235,08039,Elbert,Colorado,39.28656773,-104.1358721,26729,8,9,7,4,6,1,4,3,1,16,13,4,4,4,7,13,9,11,11
236,08041,El Paso,Colorado,38.83240149,-104.5251411,720403,7,8,5,3,5,3,2,3,1,20,7,5,5,4,14,2,1,12,4
237,08043,Fremont,Colorado,38.47362326,-105.4399667,47839,3,5,6,2,3,2,1,2,2,1,11,11,14,15,15,7,5,10,5
238,08045,Garfield,Colorado,39.59921777,-107.902708,60061,7,8,5,6,1,1,4,3,1,12,12,14,8,4,13,13,9,12,4
239,08047,Gilpin,Colorado,39.85646523,-105.5252597,6243,7,8,5,6,1,3,4,3,1,9,6,15,5,16,14,2,1,12,4
240,08049,Grand,Colorado,40.10603347,-106.1178042,15734,8,9,7,4,6,1,4,1,1,5,15,1,8,2,13,13,9,8,11
241,08051,Gunnison,Colorado,38.66611652,-107.0320729,17462,7,9,7,4,6,1,4,3,1,12,12,14,8,13,13,13,9,8,11
242,08053,Hinsdale,Colorado,37.82247444,-107.3004345,820,8,9,7,4,6,4,3,1,2,7,10,10,16,2,3,10,4,1,3
243,08055,Huerfano,Colorado,37.68473101,-104.9612585,6897,6,5,3,5,3,2,1,2,2,1,11,11,14,10,15,1,11,10,7
244,08057,Jackson,Colorado,40.6659387,-106.3408905,1392,3,2,6,2,3,2,1,2,2,14,2,7,1,5,10,4,3,7,5
245,08059,Jefferson,Colorado,39.58635604,-105.2517692,582881,7,8,5,6,1,3,4,3,1,9,6,15,5,16,14,2,1,12,4
246,08061,Kiowa,Colorado,38.43260896,-102.7392145,1406,3,2,6,2,3,2,1,2,2,14,18,7,6,15,10,7,5,7,5
247,08063,Kit Carson,Colorado,39.30497777,-102.6022199,7097,3,2,6,2,3,2,1,2,2,15,2,9,6,15,10,4,5,7,5
248,08065,Lake,Colorado,39.20278823,-106.3555697,8127,8,9,7,6,6,1,4,3,1,12,15,14,8,13,13,13,9,8,11
249,08067,La Plata,Colorado,37.28632032,-107.8429014,56221,7,8,5,3,5,3,2,3,1,20,7,5,5,16,14,2,1,12,4
250,08069,Larimer,Colorado,40.66671597,-105.4625784,356899,7,8,5,3,5,3,2,3,1,20,7,5,5,4,14,2,1,12,4
251,08071,Las Animas,Colorado,37.3153406,-104.0376458,14506,2,5,2,5,3,2,1,2,2,18,1,2,7,12,2,14,2,9,6
252,08073,Lincoln,Colorado,38.98749519,-103.5136649,5701,6,5,3,5,4,5,3,1,2,18,1,2,7,12,2,1,2,11,6
253,08075,Logan,Colorado,40.7249637,-103.110817,22409,2,5,3,5,3,2,1,2,2,1,11,11,14,12,15,14,2,10,6
254,08077,Mesa,Colorado,39.01787888,-108.469799,154210,6,5,6,5,3,2,1,2,2,1,11,11,14,10,15,1,11,10,7
255,08079,Mineral,Colorado,37.66954283,-106.9281698,769,6,5,6,2,3,2,1,2,2,1,3,11,14,12,2,11,2,2,1
256,08081,Moffat,Colorado,40.61810999,-108.2070876,13283,3,2,6,2,3,2,1,2,2,17,14,12,10,5,11,4,3,7,5
257,08083,Montezuma,Colorado,37.33859579,-108.5958857,26183,3,5,6,2,3,2,1,2,2,1,11,11,10,15,15,7,5,10,5
258,08085,Montrose,Colorado,38.40214114,-108.2639022,42758,3,2,6,2,3,2,1,2,2,14,18,7,6,15,10,4,5,7,5
259,08087,Morgan,Colorado,40.2627981,-103.8093302,29068,6,5,7,4,3,2,1,2,2,1,11,11,14,10,15,1,11,10,7
260,08089,Otero,Colorado,37.9014485,-103.7173385,18278,3,5,6,2,3,2,1,2,2,1,18,11,6,15,15,7,5,10,5
261,08091,Ouray,Colorado,38.14717457,-107.7675136,4952,8,9,7,4,6,1,4,3,1,5,15,1,8,13,13,13,9,8,11
262,08093,Park,Colorado,39.120926,-105.7182065,18845,8,9,7,4,6,1,4,3,1,16,15,1,8,1,13,13,9,8,11
263,08095,Phillips,Colorado,40.59414277,-102.3577703,4265,6,5,3,5,4,5,3,1,2,13,11,13,14,10,6,1,11,9,7
264,08097,Pitkin,Colorado,39.21720112,-106.9310027,17767,5,3,1,6,1,1,4,3,1,11,5,16,11,11,4,5,13,3,8
265,08099,Prowers,Colorado,37.95544985,-102.3926052,12172,3,2,6,2,3,2,1,2,2,1,18,7,6,15,10,7,5,10,5
266,08101,Pueblo,Colorado,38.17359144,-104.5127437,168424,6,5,3,5,6,5,2,3,1,13,13,4,4,10,7,1,11,11,7
267,08103,Rio Blanco,Colorado,39.97913541,-108.2179009,6324,3,2,6,2,3,2,1,2,2,14,2,7,6,15,10,4,5,7,5
268,08105,Rio Grande,Colorado,37.5836865,-106.3847838,11267,3,2,6,2,3,2,1,2,2,1,18,11,10,15,15,7,5,10,5
269,08107,Routt,Colorado,40.48596505,-106.9905548,25638,5,3,1,6,1,1,4,3,1,12,12,14,8,13,13,13,9,8,11
270,08109,Saguache,Colorado,38.08054629,-106.282466,6824,3,2,6,2,3,2,1,2,2,1,18,11,6,15,15,7,5,10,5
271,08111,San Juan,Colorado,37.76248981,-107.6763289,728,8,9,7,4,6,1,3,1,1,7,10,10,16,2,3,10,4,8,11
272,08113,San Miguel,Colorado,38.00450883,-108.4020725,8179,5,3,1,6,1,1,4,3,1,11,5,16,8,13,4,5,13,3,8
273,08115,Sedgwick,Colorado,40.87595412,-102.3519227,2248,2,6,6,2,3,2,1,2,2,17,14,12,10,3,11,14,2,9,6
274,08117,Summit,Colorado,39.63803232,-106.1150762,31011,5,3,1,6,1,1,4,3,1,11,5,16,11,11,4,5,13,3,8
275,08119,Teller,Colorado,38.88133511,-105.1614893,25388,6,5,7,4,6,2,1,2,2,13,11,11,14,10,7,1,11,10,7
276,08121,Washington,Colorado,39.97015535,-103.202587,4908,3,5,6,2,3,2,1,2,2,1,11,11,6,15,15,7,5,10,5
277,08123,Weld,Colorado,40.55499405,-104.3929621,324492,6,9,7,4,6,5,2,3,1,13,13,4,4,4,7,1,11,11,7
278,08125,Yuma,Colorado,40.00346839,-102.4258673,10019,3,2,6,2,3,2,1,2,2,14,18,7,6,15,10,7,5,7,5
279,09001,Fairfield,Connecticut,41.26809896,-73.3881171,943332,5,3,1,6,1,1,4,3,1,11,5,16,11,11,4,5,13,3,8
280,09003,Hartford,Connecticut,41.80283011,-72.73103891,891720,5,3,1,6,1,1,4,3,1,11,5,16,11,11,4,5,13,3,8
281,09005,Litchfield,Connecticut,41.7937534,-73.2451475,180333,8,9,7,4,6,1,4,3,1,5,15,1,8,13,13,13,9,8,11
282,09007,Middlesex,Connecticut,41.45949668,-72.53714864,162436,8,9,7,6,6,1,4,3,1,12,15,14,8,13,13,13,9,8,11
283,09009,New Haven,Connecticut,41.4080325,-72.93620426,854757,5,3,1,6,1,1,4,3,1,11,5,16,8,13,13,5,13,3,8
284,09011,New London,Connecticut,41.48896435,-72.10430976,265206,7,3,1,6,1,1,4,3,1,12,12,14,8,13,13,13,9,8,11
285,09013,Tolland,Connecticut,41.85853803,-72.3308481,150721,8,9,7,4,6,1,4,3,1,12,15,1,8,13,13,13,9,8,11
286,09015,Windham,Connecticut,41.82972709,-71.98182316,116782,8,9,7,4,6,1,4,3,1,12,15,14,8,13,13,13,9,8,11
287,10001,Kent,Delaware,39.08646628,-75.56884914,180786,8,9,7,4,6,1,4,3,1,12,15,14,8,13,13,13,9,8,11
288,10003,New Castle,Delaware,39.57992638,-75.64054974,558753,5,3,1,6,1,1,4,3,1,11,5,16,11,11,4,5,13,3,8
289,10005,Sussex,Delaware,38.66143781,-75.39031349,234225,8,9,7,4,6,1,4,3,1,12,15,14,8,13,13,13,9,8,11
290,11001,District of Columbia,District of Columbia,38.90417773,-77.01655992,705749,5,3,1,6,1,1,4,3,1,11,5,16,11,11,4,5,13,3,8
291,12001,Alachua,Florida,29.67866525,-82.35928158,269043,4,1,4,1,4,5,3,1,1,2,16,6,2,9,12,6,12,1,2
292,12003,Baker,Florida,30.33060121,-82.28467476,29210,10,6,2,7,2,4,3,1,2,10,8,17,17,7,12,3,8,1,3
293,12005,Bay,Florida,30.26548745,-85.62122584,174705,10,6,2,7,2,4,3,1,2,4,17,18,3,6,5,12,8,6,10
294,12007,Bradford,Florida,29.95079741,-82.16611613,28201,10,6,2,7,2,4,3,1,2,10,8,17,17,7,12,3,8,6,3
295,12009,Brevard,Florida,28.29409504,-80.73091022,601942,4,1,4,1,2,4,3,1,1,7,8,10,17,7,12,3,4,1,3
296,12011,Broward,Florida,26.15184651,-80.48725556,1952778,5,3,1,6,1,1,4,3,1,12,12,14,8,13,13,13,9,8,11
297,12013,Calhoun,Florida,30.40666734,-85.19394153,14105,10,6,2,7,2,4,3,1,2,10,17,17,3,6,5,12,8,6,10
298,12015,Charlotte,Florida,26.90131002,-81.92949121,188910,4,1,4,7,2,4,3,1,2,10,8,17,17,7,12,3,8,1,3
299,12017,Citrus,Florida,28.84804315,-82.47614748,149657,10,6,2,7,2,4,3,1,2,10,8,17,17,7,5,3,8,6,3
300,12019,Clay,Florida,29.98319144,-81.85609986,219252,4,1,4,7,2,4,3,1,2,10,8,17,17,7,12,3,8,1,3
301,12021,Collier,Florida,26.11091986,-81.34687065,384902,4,1,4,1,2,4,3,1,2,7,10,10,16,2,3,10,4,1,3
302,12023,Columbia,Florida,30.22509788,-82.62160164,71686,10,1,4,7,2,4,3,1,2,10,8,17,17,7,12,3,8,1,3
303,12027,DeSoto,Florida,27.18677893,-81.80941373,38001,10,6,4,7,2,4,3,1,2,10,8,17,17,7,12,3,8,1,3
304,12029,Dixie,Florida,29.60631086,-83.15724673,16826,10,6,2,7,2,4,3,1,2,4,17,18,3,6,5,12,8,6,10
305,12031,Duval,Florida,30.33225875,-81.66976468,957755,4,1,4,1,2,4,3,1,1,7,10,10,17,7,12,3,4,1,3
306,12033,Escambia,Florida,30.67652764,-87.37284571,318316,10,6,2,7,2,4,3,1,2,4,17,18,3,6,5,12,8,6,10
307,12035,Flagler,Florida,29.45933576,-81.31508595,115081,4,1,4,7,2,4,3,1,2,10,8,17,17,7,12,3,8,1,3
308,12037,Franklin,Florida,29.83791238,-84.82731662,12125,10,6,2,7,2,4,3,1,2,4,17,18,3,6,5,12,8,6,10
309,12039,Gadsden,Florida,30.57796289,-84.61915825,45660,4,1,4,1,2,4,3,1,2,7,10,10,16,7,3,10,4,1,3
310,12041,Gilchrist,Florida,29.72856978,-82.79880657,18582,10,6,2,7,2,4,3,1,2,10,8,17,17,7,12,3,8,6,3
311,12043,Glades,Florida,26.95635849,-81.18996211,13811,4,1,4,1,2,4,3,1,2,10,8,17,17,7,12,3,12,1,3
312,12045,Gulf,Florida,29.93543004,-85.2427099,13639,10,6,2,7,2,4,3,1,2,10,8,17,17,7,5,3,8,6,3
313,12047,Hamilton,Florida,30.49673973,-82.94998918,14428,4,1,4,7,2,4,3,1,2,10,8,17,17,7,12,3,8,1,3
314,12049,Hardee,Florida,27.49293939,-81.80956574,26937,4,1,4,7,2,4,3,1,2,10,8,17,17,7,12,3,8,1,3
315,12051,Hendry,Florida,26.55386945,-81.16469006,42022,4,1,4,1,4,4,3,1,1,6,16,6,17,7,12,3,12,1,3
316,12053,Hernando,Florida,28.55364461,-82.42700204,193920,10,1,2,7,2,4,3,1,2,10,8,17,17,7,12,3,8,6,3
317,12055,Highlands,Florida,27.34254618,-81.34071957,106221,10,1,4,7,2,4,3,1,2,10,8,17,17,7,12,3,8,1,3
318,12057,Hillsborough,Florida,27.9276559,-82.32013172,1471968,4,1,4,1,2,4,3,1,2,7,10,10,16,2,3,10,4,1,3
319,12059,Holmes,Florida,30.86747479,-85.81319222,19617,9,1,4,1,2,4,3,1,2,10,8,17,17,7,12,3,8,4,3
320,12061,Indian River,Florida,27.69308961,-80.60556721,159923,10,1,4,7,2,4,3,1,2,10,8,17,17,7,12,3,8,1,3
321,12063,Jackson,Florida,30.7954597,-85.21500423,46414,4,1,4,7,2,4,3,1,2,10,8,17,17,7,12,3,8,1,3
322,12065,Jefferson,Florida,30.43669112,-83.89442308,14246,4,1,4,1,2,4,3,1,2,10,8,17,17,7,12,3,8,1,3
323,12067,Lafayette,Florida,29.98484137,-83.18166636,8422,10,6,2,7,2,4,3,1,2,10,8,17,17,7,12,3,8,6,3
324,12069,Lake,Florida,28.76202069,-81.7125123,367118,10,1,2,7,2,4,3,1,2,7,8,17,3,6,5,12,8,1,3
325,12071,Lee,Florida,26.58410348,-81.88399313,770577,4,1,4,1,2,4,3,1,2,7,8,17,17,7,12,3,4,1,3
326,12073,Leon,Florida,30.45955727,-84.27491114,293582,4,1,4,1,2,4,3,1,1,7,10,10,16,2,3,10,4,1,3
327,12075,Levy,Florida,29.31829741,-82.74007147,41503,10,6,2,7,2,4,3,1,2,10,8,17,17,7,12,3,8,6,3
328,12077,Liberty,Florida,30.23766008,-84.8829258,8354,10,1,4,7,2,4,3,1,2,10,8,17,17,7,12,3,8,1,3
329,12079,Madison,Florida,30.44396917,-83.47398594,18493,9,4,4,1,4,5,3,1,1,19,19,6,17,9,9,6,12,4,2
330,12081,Manatee,Florida,27.47196942,-82.31831044,403253,10,1,2,7,2,4,3,1,2,10,8,17,3,6,5,12,8,6,3
331,12083,Marion,Florida,29.21227113,-82.05803627,365579,10,1,2,7,2,4,3,1,2,10,8,17,17,7,12,3,8,1,3
332,12085,Martin,Florida,27.0772071,-80.43109784,161000,4,1,4,1,6,4,3,1,1,7,10,10,16,2,3,10,4,1,3
333,12086,Miami-Dade,Florida,25.6112362,-80.55170587,2716940,5,3,1,6,1,1,4,3,1,11,12,14,8,13,13,5,13,3,8
334,12087,Monroe,Florida,25.20904673,-81.07812416,74228,7,8,5,6,1,1,4,3,1,6,12,14,8,13,3,10,9,8,11
335,12089,Nassau,Florida,30.61037141,-81.80297522,88625,10,6,2,7,2,4,3,1,2,10,8,17,17,7,5,12,8,6,3
336,12091,Okaloosa,Florida,30.69143028,-86.59267105,210738,10,6,2,7,2,4,3,1,2,10,8,17,17,7,12,3,8,1,3
337,12093,Okeechobee,Florida,27.3863362,-80.88944347,42168,4,1,4,1,2,4,3,1,2,10,8,17,17,7,12,3,8,1,3
338,12095,Orange,Florida,28.51367621,-81.31799498,1393452,4,1,4,1,6,4,3,1,1,7,10,10,16,2,3,10,4,1,3
339,12097,Osceola,Florida,28.06312234,-81.14882926,375751,4,1,4,1,6,1,3,1,1,7,10,10,16,2,3,10,4,1,3
340,12099,Palm Beach,Florida,26.64676272,-80.46536002,1496770,4,1,4,4,6,1,4,3,1,7,10,10,16,2,3,10,4,8,11
341,12101,Pasco,Florida,28.30810945,-82.40227529,553947,10,1,4,7,2,4,3,1,2,10,8,17,17,7,12,3,8,1,3
342,12103,Pinellas,Florida,27.93130349,-82.72239666,974996,4,1,4,7,2,4,3,1,2,7,8,17,17,7,12,3,8,1,3
343,12105,Polk,Florida,27.95027105,-81.69732947,724777,4,1,4,1,2,4,3,1,2,7,10,10,16,7,12,3,4,1,3
344,12107,Putnam,Florida,29.60779729,-81.74230285,74521,10,6,2,7,2,4,3,1,2,10,8,17,3,6,5,12,8,6,3
345,12109,St. Johns,Florida,29.90096506,-81.43589967,264672,10,6,2,7,2,4,3,1,2,4,17,18,3,6,5,12,8,6,3
346,12111,St. Lucie,Florida,27.37763908,-80.47106649,328297,4,1,4,1,2,4,3,1,1,7,10,10,16,2,3,10,4,1,3
347,12113,Santa Rosa,Florida,30.6934145,-87.02458128,184313,10,6,2,7,2,4,3,1,2,10,8,17,3,6,5,12,8,6,3
348,12115,Sarasota,Florida,27.18546175,-82.33174248,433742,4,1,4,7,2,4,3,1,2,7,8,17,17,7,12,3,8,1,3
349,12117,Seminole,Florida,28.7158582,-81.24060348,471826,4,1,4,1,2,4,3,1,1,6,10,10,16,2,3,10,4,1,3
350,12119,Sumter,Florida,28.70181754,-82.0794267,132420,10,6,2,7,2,4,3,1,2,4,17,18,3,6,5,12,8,6,10
351,12121,Suwannee,Florida,30.19746066,-82.9909967,44417,10,1,4,7,2,4,3,1,2,10,8,17,17,7,12,3,8,1,3
352,12123,Taylor,Florida,30.04848048,-83.60445406,21569,9,4,4,7,2,4,3,1,2,10,8,17,17,7,12,3,7,4,2
353,12125,Union,Florida,30.04412971,-82.37497443,15237,10,1,4,7,2,4,3,1,2,10,8,17,17,7,12,3,8,1,3
354,12127,Volusia,Florida,29.05858895,-81.18263252,553284,4,1,4,7,2,4,3,1,2,7,10,10,16,7,12,3,4,1,3
355,12129,Wakulla,Florida,30.16548905,-84.39895211,33739,10,1,4,7,2,4,3,1,2,10,8,17,17,7,12,3,8,1,3
356,12131,Walton,Florida,30.64204028,-86.16935664,74071,10,6,2,7,2,4,3,1,2,10,17,17,3,6,5,12,8,6,3
357,12133,Washington,Florida,30.61359259,-85.66002461,25473,9,1,4,1,2,4,3,1,2,10,8,17,17,7,12,3,8,4,3
358,13001,Appling,Georgia,31.74847232,-82.28909114,18386,10,6,2,7,2,4,3,1,2,10,8,17,17,7,12,3,8,1,3
359,13003,Atkinson,Georgia,31.29633502,-82.87545866,8165,10,6,2,7,2,4,3,1,2,4,17,18,3,6,5,12,8,6,3
360,13005,Bacon,Georgia,31.55456473,-82.45936528,11164,10,6,2,7,2,4,1,2,2,4,17,12,3,5,11,12,3,6,10
361,13007,Baker,Georgia,31.32669878,-84.44218806,3038,10,6,2,7,2,4,3,1,2,4,17,18,3,6,5,12,8,6,3
362,13009,Baldwin,Georgia,33.06882326,-83.24701748,44890,4,1,4,1,2,4,3,1,2,7,10,10,16,2,3,10,4,1,3
363,13011,Banks,Georgia,34.35607081,-83.49644388,19234,4,1,4,7,2,4,3,1,2,7,10,10,16,7,5,3,4,1,3
364,13013,Barrow,Georgia,33.99148694,-83.71436292,83240,4,1,4,7,2,4,3,1,2,7,10,10,16,2,3,10,4,1,3
365,13015,Bartow,Georgia,34.23732119,-84.83887523,107738,10,1,2,7,2,4,3,1,2,7,17,18,3,6,5,12,4,6,3
366,13017,Ben Hill,Georgia,31.76095874,-83.22145359,16700,10,1,4,7,2,4,3,1,2,10,8,17,17,7,12,3,8,1,3
367,13019,Berrien,Georgia,31.27590016,-83.2252992,19397,4,1,4,7,2,4,3,1,2,10,8,17,17,7,12,3,8,1,3
368,13021,Bibb,Georgia,32.80904227,-83.70489165,153159,4,1,4,7,2,4,3,1,2,7,10,10,16,2,3,10,4,1,3
369,13023,Bleckley,Georgia,32.43829035,-83.33035166,12873,4,1,4,1,2,4,3,1,1,7,8,10,17,7,12,3,4,1,3
370,13025,Brantley,Georgia,31.19576557,-81.97743999,19109,10,6,2,7,2,4,3,1,2,4,17,18,3,6,5,12,8,6,10
371,13027,Brooks,Georgia,30.83922642,-83.58303423,15457,4,1,4,1,2,4,3,1,2,10,8,17,17,7,12,3,8,1,3
372,13029,Bryan,Georgia,32.00979311,-81.44002948,39627,4,1,4,7,2,4,3,1,2,10,8,17,17,7,12,3,8,1,3
373,13031,Bulloch,Georgia,32.39577406,-81.74811421,79608,4,1,4,7,2,4,3,1,2,10,8,17,17,7,12,3,8,1,3
374,13033,Burke,Georgia,33.05917989,-81.99928721,22383,4,1,4,1,2,4,3,1,2,7,8,17,17,7,12,3,4,1,3
375,13035,Butts,Georgia,33.2830945,-83.9543504,24936,10,6,2,7,2,4,3,1,2,4,17,18,3,6,5,12,4,6,10
376,13037,Calhoun,Georgia,31.53169785,-84.62725131,6189,9,4,3,1,4,5,2,1,1,19,19,3,15,9,9,8,7,4,2
377,13039,Camden,Georgia,30.92951916,-81.66601818,54666,10,6,2,7,2,4,3,1,2,4,17,18,3,6,5,12,8,6,10
378,13043,Candler,Georgia,32.40209349,-82.07702563,10803,10,6,2,7,2,4,3,1,2,4,17,18,3,6,5,12,8,6,10
379,13045,Carroll,Georgia,33.58138199,-85.07976677,119992,4,1,2,7,2,4,3,1,2,7,10,10,16,6,5,10,4,6,3
380,13047,Catoosa,Georgia,34.89872298,-85.13757014,67580,4,1,4,7,2,4,3,1,2,10,8,17,17,7,12,3,8,1,3
381,13049,Charlton,Georgia,30.78371028,-82.13951596,13392,10,6,2,7,3,2,1,2,2,17,17,12,1,5,11,4,3,6,10
382,13051,Chatham,Georgia,32.00043026,-81.12489526,289430,4,1,4,1,4,4,3,1,1,6,16,10,2,2,3,10,4,1,3
383,13053,Chattahoochee,Georgia,32.34341231,-84.78809239,10907,3,2,6,2,3,2,1,2,2,17,2,12,1,5,11,4,3,7,5
384,13055,Chattooga,Georgia,34.47197698,-85.34535662,24789,10,1,2,7,2,4,3,1,2,10,8,17,17,7,12,3,8,1,3
385,13057,Cherokee,Georgia,34.24393976,-84.47431861,258773,4,1,4,7,2,4,3,1,2,7,10,10,16,6,5,10,4,1,3
386,13059,Clarke,Georgia,33.95436462,-83.37124007,128331,4,1,4,1,6,4,3,1,1,7,10,10,16,2,3,10,4,1,3
387,13061,Clay,Georgia,31.62221166,-84.97713865,2834,7,8,5,1,1,1,4,3,1,6,12,14,2,4,3,10,1,12,4
388,13063,Clayton,Georgia,33.54187245,-84.35594188,292256,8,9,7,4,6,4,3,1,2,7,10,10,16,2,3,10,4,8,3
389,13065,Clinch,Georgia,30.91395822,-82.70432472,6618,10,6,2,7,2,4,3,2,2,4,17,18,3,6,5,12,3,6,10
390,13067,Cobb,Georgia,33.94243204,-84.5761255,760141,8,1,7,4,6,1,4,1,1,7,10,10,16,2,3,10,4,8,11
391,13069,Coffee,Georgia,31.54892966,-82.8549206,43273,10,6,2,7,2,4,3,1,2,4,17,18,3,6,5,12,8,6,3
392,13071,Colquitt,Georgia,31.18810588,-83.7677946,45600,4,1,4,1,2,4,3,1,2,7,8,17,17,7,12,3,4,1,3
393,13073,Columbia,Georgia,33.54534185,-82.263524,156714,10,1,2,7,2,4,3,1,2,10,8,17,3,6,5,12,8,6,3
394,13075,Cook,Georgia,31.16068491,-83.42947229,17270,4,1,4,1,2,4,3,1,2,10,8,17,17,7,12,3,8,1,3
395,13077,Coweta,Georgia,33.35334302,-84.76129976,148509,4,1,7,4,6,4,3,1,1,7,10,10,16,2,3,10,4,8,11
396,13079,Crawford,Georgia,32.71391813,-83.98061238,12404,4,1,4,7,2,4,3,1,2,10,8,17,17,7,12,3,8,1,3
397,13081,Crisp,Georgia,31.92289565,-83.76811843,22372,10,1,2,7,2,4,3,1,2,7,8,17,3,6,5,12,8,1,3
398,13083,Dade,Georgia,34.8549167,-85.50490424,16116,10,6,2,7,2,4,3,1,2,4,17,18,3,6,5,12,8,6,10
399,13085,Dawson,Georgia,34.44244079,-84.16964071,26108,4,1,4,1,2,4,3,1,2,7,10,10,16,2,3,10,4,1,3
400,13087,Decatur,Georgia,30.87967778,-84.57619536,26404,10,6,2,7,2,4,3,2,2,4,17,18,3,6,5,12,8,6,10
401,13089,DeKalb,Georgia,33.76944049,-84.22396017,759297,8,9,7,4,6,4,3,1,2,7,10,10,16,2,3,10,4,8,11
402,13091,Dodge,Georgia,32.17265114,-83.16948926,20605,4,1,4,1,2,4,3,1,2,10,8,17,17,7,12,3,8,1,3
403,13093,Dooly,Georgia,32.15630737,-83.79746561,13390,10,1,2,7,2,4,3,1,2,7,17,18,3,6,5,12,8,6,3
404,13095,Dougherty,Georgia,31.53328528,-84.21722377,87956,4,1,4,1,2,4,3,1,2,10,8,17,17,7,12,3,8,1,3
405,13097,Douglas,Georgia,33.70291126,-84.77026156,146343,8,9,7,4,6,1,4,1,1,7,10,10,16,2,3,10,4,8,11
406,13099,Early,Georgia,31.32155345,-84.90255207,10190,4,1,4,1,4,4,3,1,1,2,16,6,17,7,12,3,12,1,3
407,13101,Echols,Georgia,30.71101099,-82.89687287,4006,9,4,4,1,4,4,3,1,2,10,8,17,17,7,12,3,7,4,2
408,13103,Effingham,Georgia,32.36616021,-81.34280942,64296,4,1,4,1,2,4,3,1,2,10,8,17,17,7,12,3,8,1,3
409,13105,Elbert,Georgia,34.11302332,-82.83936148,19194,4,1,4,7,2,4,3,1,2,10,8,17,17,7,12,3,8,1,3
410,13107,Emanuel,Georgia,32.59221302,-82.30239915,22646,10,1,2,7,2,4,3,1,2,10,8,17,17,7,12,3,8,6,3
411,13109,Evans,Georgia,32.15328841,-81.8870105,10654,10,6,2,7,2,4,3,1,2,10,8,17,3,6,5,12,8,6,3
412,13111,Fannin,Georgia,34.86430205,-84.316964,26188,10,6,2,7,2,4,3,1,2,4,17,18,3,6,5,12,8,6,10
413,13113,Fayette,Georgia,33.41357794,-84.49089434,114421,8,9,7,4,6,4,3,1,2,7,10,10,16,2,3,10,4,8,11
414,13115,Floyd,Georgia,34.26268279,-85.21577392,98498,4,1,4,7,2,4,3,1,2,7,10,10,16,2,3,10,4,1,3
415,13117,Forsyth,Georgia,34.22604035,-84.1231513,244252,4,1,2,7,2,4,3,1,2,7,10,10,16,2,3,10,4,1,3
416,13119,Franklin,Georgia,34.37525597,-83.23159927,23349,10,6,2,7,2,4,3,1,2,4,17,18,3,6,5,12,8,6,10
417,13121,Fulton,Georgia,33.79216944,-84.46319413,1063937,8,9,7,4,6,1,4,3,1,5,15,10,8,13,13,10,9,8,11
418,13123,Gilmer,Georgia,34.69316688,-84.45802506,31369,10,6,2,7,2,4,3,1,2,4,17,18,3,6,5,12,8,6,10
419,13125,Glascock,Georgia,33.22879932,-82.61297636,2971,10,1,2,7,2,4,3,1,2,7,8,17,3,6,5,12,8,1,3
420,13127,Glynn,Georgia,31.23279254,-81.53811412,85292,4,1,4,1,2,4,3,1,2,10,8,17,17,7,12,3,8,1,3
421,13129,Gordon,Georgia,34.50487351,-84.87296253,57963,10,6,2,7,2,4,3,2,2,4,17,18,3,6,5,12,3,6,10
422,13131,Grady,Georgia,30.87454847,-84.23418364,24633,4,1,4,1,2,4,3,1,2,10,8,17,17,7,12,3,8,1,3
423,13133,Greene,Georgia,33.5769205,-83.17139104,18324,10,1,2,7,2,4,3,1,2,7,10,18,3,6,5,12,4,6,3
424,13135,Gwinnett,Georgia,33.96044201,-84.02137802,936250,4,1,4,1,6,1,4,3,1,6,12,14,16,2,3,10,4,8,11
425,13137,Habersham,Georgia,34.63331566,-83.53094677,45328,10,6,2,7,2,4,3,1,2,4,17,18,3,6,5,12,8,6,10
426,13139,Hall,Georgia,34.32207823,-83.81896936,204441,4,1,4,7,2,4,3,1,2,7,10,10,16,2,3,10,4,1,3
427,13141,Hancock,Georgia,33.2721566,-82.99766919,8457,4,1,4,1,2,4,3,1,1,7,10,10,16,2,3,10,4,1,3
428,13143,Haralson,Georgia,33.79602175,-85.21005667,29792,4,1,4,1,2,4,3,1,2,7,10,10,16,2,3,10,4,1,3
429,13145,Harris,Georgia,32.73709786,-84.90538572,35236,4,1,4,1,4,5,3,1,1,6,16,6,2,2,3,10,12,1,3
430,13147,Hart,Georgia,34.34626973,-82.96567682,26205,4,1,4,7,2,4,3,1,2,7,8,17,17,7,12,3,8,1,3
431,13149,Heard,Georgia,33.29686567,-85.12886832,11923,4,1,4,7,2,4,3,1,2,7,10,10,16,7,5,12,4,1,3
432,13151,Henry,Georgia,33.4533428,-84.1481466,234561,8,1,7,4,6,4,3,1,2,7,10,10,16,2,3,10,4,8,11
433,13153,Houston,Georgia,32.45802497,-83.66879087,157863,4,1,4,1,2,4,3,1,1,7,10,10,16,7,3,10,4,1,3
434,13155,Irwin,Georgia,31.60213036,-83.27501387,9416,10,6,2,7,2,4,3,1,2,10,8,17,3,6,5,12,8,6,3
435,13157,Jackson,Georgia,34.13794553,-83.56814788,72977,4,1,4,7,2,4,3,1,2,7,10,10,16,6,5,12,4,1,3
436,13159,Jasper,Georgia,33.31535543,-83.68844964,14219,4,1,4,7,2,4,3,1,2,7,10,10,16,2,3,10,4,1,3
437,13161,Jeff Davis,Georgia,31.80405727,-82.6372487,15115,10,6,2,7,2,4,3,1,2,4,17,18,3,6,5,12,8,6,10
438,13163,Jefferson,Georgia,33.05867328,-82.41609057,15362,10,1,2,7,2,4,3,1,2,4,17,18,3,6,5,12,8,6,3
439,13165,Jenkins,Georgia,32.79248718,-81.96040187,8676,10,6,2,7,2,4,3,1,2,4,17,18,3,6,5,12,8,6,10
440,13167,Johnson,Georgia,32.70211082,-82.66166794,9643,4,1,4,1,2,4,3,1,1,10,8,17,17,7,12,3,12,1,3
441,13169,Jones,Georgia,33.02512137,-83.56019163,28735,10,6,2,7,2,4,3,1,2,4,17,18,3,6,5,12,8,6,10
442,13171,Lamar,Georgia,33.07841647,-84.14263877,19077,10,1,2,7,2,4,3,1,2,4,17,18,3,6,5,12,8,6,3
443,13173,Lanier,Georgia,31.0382857,-83.06472457,10423,9,4,4,1,4,5,3,1,1,2,16,6,17,9,12,3,12,4,2
444,13175,Laurens,Georgia,32.46325233,-82.92221316,47546,4,1,4,1,2,4,3,1,2,7,10,10,16,7,12,10,4,1,3
445,13177,Lee,Georgia,31.7793306,-84.14324253,29992,4,1,4,7,2,4,3,1,2,10,8,17,17,7,12,3,8,1,3
446,13179,Liberty,Georgia,31.82588896,-81.49251135,61435,9,4,4,1,4,5,2,1,1,6,16,6,2,9,9,6,12,4,2
447,13181,Lincoln,Georgia,33.79201475,-82.45024131,7921,10,6,2,7,2,4,3,1,2,4,17,18,3,6,5,12,8,6,10
448,13183,Long,Georgia,31.75218791,-81.74952375,19559,4,1,4,1,2,4,3,1,2,10,8,17,17,7,12,3,8,1,3
449,13185,Lowndes,Georgia,30.83568832,-83.27056716,117406,4,1,4,1,2,4,3,1,2,10,8,17,17,7,12,3,8,1,3
450,13187,Lumpkin,Georgia,34.57286511,-84.00425681,33610,10,6,2,7,2,4,3,1,2,4,17,18,3,6,5,12,8,6,3
451,13189,McDuffie,Georgia,33.47851918,-82.48252774,21312,10,1,2,7,2,4,3,1,2,7,10,18,3,6,5,12,4,6,3
452,13191,McIntosh,Georgia,31.49683595,-81.40163426,14378,10,1,4,7,2,4,3,1,2,10,8,17,17,7,12,3,8,1,3
453,13193,Macon,Georgia,32.35207048,-84.04234127,12947,4,1,4,1,2,4,3,1,1,7,10,10,16,2,3,10,4,1,3
454,13195,Madison,Georgia,34.12920917,-83.21218732,29880,10,6,2,7,2,4,3,1,2,4,17,18,3,6,5,12,8,6,3
455,13197,Marion,Georgia,32.3483402,-84.52733571,8359,4,1,4,1,2,4,3,1,2,10,8,17,17,7,12,3,4,1,3
456,13199,Meriwether,Georgia,33.04163534,-84.68859732,21167,10,1,2,7,2,4,3,1,2,7,10,18,3,6,5,12,4,6,3
457,13201,Miller,Georgia,31.16568912,-84.73151117,5718,10,1,2,7,2,4,3,1,2,10,8,17,17,7,5,3,8,1,3
458,13205,Mitchell,Georgia,31.22483255,-84.19381821,21863,10,1,2,7,2,4,3,1,2,7,8,17,3,6,5,12,8,6,3
459,13207,Monroe,Georgia,33.014289,-83.92097166,27578,10,1,2,7,2,4,3,1,2,7,17,18,3,6,5,12,8,6,3
460,13209,Montgomery,Georgia,32.17201038,-82.53527476,9172,10,6,2,7,2,4,3,1,2,4,17,18,3,6,5,12,8,6,10
461,13211,Morgan,Georgia,33.59232073,-83.49129491,19276,10,6,2,7,2,4,3,2,2,4,17,18,3,6,5,12,3,6,10
462,13213,Murray,Georgia,34.78897608,-84.74993177,40096,2,6,2,7,2,4,3,1,2,18,1,2,7,12,2,14,2,9,6
463,13215,Muscogee,Georgia,32.50931999,-84.87142262,195769,4,1,4,1,6,4,3,1,1,7,10,10,16,2,3,10,4,1,3
464,13217,Newton,Georgia,33.55514538,-83.8454714,111744,8,9,7,7,2,4,3,1,2,7,10,10,16,6,5,10,4,6,3
465,13219,Oconee,Georgia,33.83749973,-83.43679568,40280,4,1,4,1,2,4,3,1,1,7,10,10,16,2,3,10,4,1,3
466,13221,Oglethorpe,Georgia,33.8786296,-83.08278123,15259,4,1,4,1,2,4,3,1,2,7,10,10,16,2,3,10,4,1,3
467,13223,Paulding,Georgia,33.91969522,-84.86848792,168667,4,1,4,7,2,4,3,1,2,7,10,10,16,2,3,10,4,6,3
468,13225,Peach,Georgia,32.56934316,-83.82937,27546,4,1,4,7,2,4,3,1,2,7,10,10,16,6,5,12,4,1,3
469,13227,Pickens,Georgia,34.46589159,-84.46406611,32591,10,6,2,7,2,4,3,2,2,4,17,18,3,6,5,12,3,6,10
470,13229,Pierce,Georgia,31.35928155,-82.21598442,19465,10,6,2,7,2,4,3,1,2,4,17,18,3,6,5,12,8,6,10
471,13231,Pike,Georgia,33.09310242,-84.38790389,18962,10,6,2,7,2,4,3,1,2,4,17,18,3,6,5,12,8,6,10
472,13233,Polk,Georgia,34.00267074,-85.18677781,42613,4,1,4,7,2,4,3,1,2,7,10,10,16,6,5,12,4,1,3
473,13235,Pulaski,Georgia,32.23334561,-83.4754996,11137,4,1,4,7,2,4,3,1,2,10,8,17,17,7,12,3,8,1,3
474,13237,Putnam,Georgia,33.32056115,-83.37552891,22119,10,6,2,7,2,4,3,1,2,4,17,18,3,6,5,12,8,6,10
475,13239,Quitman,Georgia,31.86728114,-85.01773177,2299,4,1,4,1,4,5,3,1,1,6,16,6,2,2,3,10,12,1,3
476,13241,Rabun,Georgia,34.88389445,-83.40304637,17137,4,1,4,7,2,4,3,1,2,7,1,10,7,7,12,3,4,1,3
477,13243,Randolph,Georgia,31.76622818,-84.75732369,6778,4,1,4,7,2,4,3,1,2,10,8,17,17,7,12,3,8,1,3
478,13245,Richmond,Georgia,33.35777107,-82.07026432,202518,4,1,4,7,2,4,3,1,2,7,10,10,16,2,5,10,4,1,3
479,13247,Rockdale,Georgia,33.65145002,-84.02202167,90896,8,9,7,4,6,1,4,1,1,5,10,10,16,2,3,10,4,8,11
480,13249,Schley,Georgia,32.2654021,-84.31258912,5257,9,4,3,1,4,5,3,1,1,2,16,6,2,9,9,6,12,4,2
481,13251,Screven,Georgia,32.74976524,-81.60779441,13966,4,1,4,1,2,4,3,1,2,10,8,17,17,7,12,3,8,1,3
482,13253,Seminole,Georgia,30.93464824,-84.86823924,8090,9,1,4,1,4,5,3,1,1,6,16,6,17,7,12,6,12,4,2
483,13255,Spalding,Georgia,33.26310031,-84.28013991,66703,4,1,4,7,6,4,3,1,2,7,10,10,16,2,3,10,4,1,3
484,13257,Stephens,Georgia,34.55151201,-83.29405315,25925,10,6,2,7,2,4,3,1,2,4,17,18,3,6,5,12,8,6,10
485,13259,Stewart,Georgia,32.07996777,-84.83208037,6621,3,2,6,2,3,2,1,2,2,15,2,9,1,5,11,4,3,7,5
486,13261,Sumter,Georgia,32.03650571,-84.19821492,29524,4,1,4,1,2,4,3,1,2,7,10,10,16,2,3,10,4,1,3
487,13263,Talbot,Georgia,32.69642758,-84.53351366,6195,4,1,4,1,6,4,3,1,1,7,10,10,16,2,3,10,4,1,3
488,13265,Taliaferro,Georgia,33.56543317,-82.88136816,1537,9,4,4,1,4,5,2,1,1,2,16,6,2,9,9,6,12,4,2
489,13267,Tattnall,Georgia,32.04785085,-82.05539188,25286,10,6,2,7,2,4,3,1,2,4,17,18,3,6,5,12,8,6,10
490,13269,Taylor,Georgia,32.55792548,-84.25077141,8020,4,1,4,1,2,4,3,1,1,7,10,10,16,2,3,10,4,1,3
491,13271,Telfair,Georgia,31.92829517,-82.93491155,15860,10,6,2,7,2,4,3,1,2,4,17,18,3,6,5,12,8,6,10
492,13273,Terrell,Georgia,31.77527543,-84.44069698,8531,9,4,4,1,4,5,2,1,1,2,16,6,2,9,9,6,12,4,2
493,13275,Thomas,Georgia,30.86392347,-83.91847289,44451,4,1,4,7,2,4,3,1,2,10,8,17,17,7,12,3,8,1,3
494,13277,Tift,Georgia,31.45743864,-83.5236119,40644,4,1,4,1,2,4,3,1,2,10,8,17,17,7,12,3,8,1,3
495,13279,Toombs,Georgia,32.12059861,-82.32957247,26830,10,6,2,7,2,4,3,1,2,4,17,18,3,6,5,12,8,6,10
496,13281,Towns,Georgia,34.91369188,-83.7410746,12037,10,6,2,7,2,4,3,1,2,4,17,18,3,6,5,12,8,6,10
497,13283,Treutlen,Georgia,32.40422134,-82.56904553,6901,10,6,2,7,2,4,3,1,2,4,17,18,3,6,5,12,8,6,10
498,13285,Troup,Georgia,33.03349196,-85.02812115,69922,4,1,4,7,2,4,3,1,2,7,10,10,16,2,3,10,4,6,3
499,13287,Turner,Georgia,31.71612656,-83.62069378,7985,4,1,4,7,2,4,3,1,2,7,10,10,16,7,12,3,4,1,3
500,13289,Twiggs,Georgia,32.67435595,-83.43078662,8120,10,6,2,7,2,4,3,1,2,4,17,18,3,6,5,12,8,6,10
501,13291,Union,Georgia,34.82995757,-83.98967069,24511,10,6,2,7,2,4,3,1,2,4,17,18,3,6,5,12,8,6,10
502,13293,Upson,Georgia,32.87920671,-84.30024826,26320,4,1,4,7,2,4,3,1,2,7,10,10,16,6,5,10,4,1,3
503,13295,Walker,Georgia,34.73376362,-85.30165174,69761,10,6,2,7,2,4,3,1,2,4,17,18,3,6,5,12,8,6,10
504,13297,Walton,Georgia,33.78017694,-83.73552314,94593,10,1,2,7,2,4,3,1,2,7,10,18,3,6,5,12,4,6,3
505,13299,Ware,Georgia,31.05449097,-82.42224148,35734,10,6,2,7,2,4,3,1,2,4,17,18,3,6,5,12,8,6,3
506,13301,Warren,Georgia,33.41146451,-82.67795848,5254,10,1,2,7,2,4,3,1,2,7,10,10,3,6,5,12,4,6,3
507,13303,Washington,Georgia,32.96711864,-82.79357039,20374,10,1,2,7,2,4,3,1,2,4,17,18,3,6,5,12,8,6,3
508,13305,Wayne,Georgia,31.5521809,-81.91894878,29927,10,6,2,7,2,4,3,1,2,10,17,17,3,6,5,12,8,6,3
509,13307,Webster,Georgia,32.04066113,-84.54742852,2607,4,1,4,1,6,4,3,1,1,7,10,10,16,2,3,10,4,1,3
510,13309,Wheeler,Georgia,32.12009104,-82.72574721,7855,10,6,2,7,2,4,3,1,2,4,17,18,3,6,5,12,8,6,10
511,13311,White,Georgia,34.64624278,-83.74905525,30798,10,1,4,7,2,4,3,1,2,10,8,17,17,7,12,3,8,1,3
512,13313,Whitfield,Georgia,34.80987459,-84.96093476,104628,4,1,4,1,4,5,3,1,1,2,16,6,2,2,3,10,12,1,3
513,13315,Wilcox,Georgia,31.97496928,-83.43438555,8635,9,4,4,1,4,5,3,1,1,10,8,17,17,7,12,3,12,4,2
514,13317,Wilkes,Georgia,33.78290391,-82.74286107,9777,4,1,4,1,4,4,3,1,2,10,8,17,17,7,12,3,12,1,3
515,13319,Wilkinson,Georgia,32.80291082,-83.17140684,8954,4,1,4,1,2,4,3,1,1,7,8,10,17,7,12,3,4,1,3
516,13321,Worth,Georgia,31.55162306,-83.85090513,20247,4,1,4,1,2,4,3,1,1,10,8,17,17,7,12,3,12,1,3
517,16001,Ada,Idaho,43.4526575,-116.2415516,481587,3,2,6,2,3,2,1,2,2,17,14,12,10,5,11,4,3,7,5
518,16003,Adams,Idaho,44.89333571,-116.4545247,4294,3,2,6,2,3,2,1,2,2,17,2,12,1,5,11,4,3,7,10
519,16005,Bannock,Idaho,42.67002716,-112.2233311,87808,2,5,3,5,4,5,3,1,2,8,9,13,9,3,6,8,7,9,6
520,16007,Bear Lake,Idaho,42.28269683,-111.3289238,6125,2,6,6,2,3,2,1,2,2,17,14,12,10,5,11,14,3,9,10
521,16009,Benewah,Idaho,47.21754179,-116.6586851,9298,3,2,6,2,3,2,1,2,2,14,2,7,1,5,10,4,3,7,5
522,16011,Bingham,Idaho,43.2167288,-112.3978437,46811,2,5,3,5,3,2,1,2,2,1,11,11,14,3,15,14,2,9,6
523,16013,Blaine,Idaho,43.4085812,-113.9752658,23021,8,9,7,4,6,1,4,3,1,12,15,14,8,13,13,13,9,8,11
524,16015,Boise,Idaho,43.98829931,-115.7309284,7831,3,2,6,2,3,2,1,2,2,17,14,12,1,5,11,4,3,7,5
525,16017,Bonner,Idaho,48.29996017,-116.6017932,45739,3,2,6,2,3,2,1,2,2,17,2,12,1,5,11,4,3,7,5
526,16019,Bonneville,Idaho,43.38713372,-111.6161537,119062,6,5,3,5,4,5,1,2,2,13,11,11,14,10,7,1,11,11,7
527,16021,Boundary,Idaho,48.76684761,-116.4630179,12245,3,2,6,2,3,2,1,2,2,17,2,12,1,5,11,4,3,7,5
528,16023,Butte,Idaho,43.72592209,-113.1735463,2597,3,2,6,2,3,2,1,2,2,17,2,12,1,5,11,4,3,7,5
529,16025,Camas,Idaho,43.46665742,-114.8065892,1106,3,2,6,2,3,2,1,2,2,17,2,12,1,5,11,4,3,7,10
530,16027,Canyon,Idaho,43.61970148,-116.7095499,229849,3,2,6,2,3,2,1,2,2,17,14,12,10,5,11,4,3,7,10
531,16029,Caribou,Idaho,42.77149116,-111.5597683,7155,2,5,3,5,4,5,3,1,2,8,9,13,9,3,6,8,7,9,6
532,16031,Cassia,Idaho,42.28347888,-113.6012409,24030,3,2,6,2,3,2,1,2,2,17,2,12,1,5,11,4,3,7,10
533,16033,Clark,Idaho,44.28496071,-112.3505704,845,3,5,6,2,3,2,1,2,2,1,11,11,14,15,15,7,5,10,5
534,16035,Clearwater,Idaho,46.67459924,-115.6622393,8756,2,6,2,7,2,4,3,1,2,8,9,13,9,3,6,14,8,9,6
535,16037,Custer,Idaho,44.24186819,-114.2855494,4315,3,2,6,2,3,2,1,2,2,17,14,12,10,15,11,7,5,7,5
536,16039,Elmore,Idaho,43.3507101,-115.4701578,27511,3,2,6,2,3,2,1,2,2,17,14,12,1,5,11,4,3,7,5
537,16041,Franklin,Idaho,42.18332217,-111.8149666,13876,3,2,6,2,3,2,1,2,2,15,3,9,10,12,8,11,10,2,1
538,16043,Fremont,Idaho,44.22800938,-111.4809943,13099,6,5,6,5,3,2,1,2,2,1,11,11,14,12,15,14,2,10,6
539,16045,Gem,Idaho,44.06482372,-116.398376,18112,3,2,6,2,3,2,1,2,2,17,2,12,1,5,11,4,3,7,10
540,16047,Gooding,Idaho,42.96927962,-114.8108306,15179,3,2,6,2,3,2,1,2,2,17,2,12,1,5,11,4,3,7,10
541,16049,Idaho,Idaho,45.84721541,-115.4634436,16667,3,2,6,2,3,2,1,2,2,17,14,12,1,5,11,4,3,7,10
542,16051,Jefferson,Idaho,43.82078483,-112.3131749,29871,3,5,6,2,3,2,1,2,2,1,11,11,10,15,15,7,2,10,5
543,16053,Jerome,Idaho,42.68891267,-114.2655033,24412,3,2,6,2,3,2,1,2,2,17,2,12,1,5,11,4,3,7,10
544,16055,Kootenai,Idaho,47.67282258,-116.7020872,165697,3,2,6,2,3,2,1,2,2,17,2,12,1,5,11,4,3,7,10
545,16057,Latah,Idaho,46.81587887,-116.7113698,40108,9,4,3,5,4,5,3,1,2,8,9,13,9,3,6,8,7,4,6
546,16059,Lemhi,Idaho,44.9438088,-113.9309747,8027,3,2,6,2,3,2,1,2,2,14,2,7,6,15,10,4,5,7,5
547,16061,Lewis,Idaho,46.23315327,-116.434146,3838,2,6,2,5,3,2,1,2,2,8,14,13,9,3,6,14,2,9,6
548,16063,Lincoln,Idaho,43.0012336,-114.1358773,5366,3,2,6,2,3,2,1,2,2,17,2,12,1,5,11,4,3,7,5
549,16065,Madison,Idaho,43.78141028,-111.6538474,39907,9,4,3,5,4,5,2,1,2,13,11,4,14,10,7,1,11,11,7
550,16067,Minidoka,Idaho,42.85518524,-113.6357257,21039,3,2,6,2,3,2,1,2,2,17,2,12,1,5,11,4,3,7,10
551,16069,Nez Perce,Idaho,46.32638236,-116.7500975,40408,2,4,3,5,4,5,3,1,2,8,9,13,9,3,6,8,7,9,6
552,16071,Oneida,Idaho,42.1949428,-112.5407838,4531,2,5,6,2,3,2,1,2,2,1,14,11,10,12,15,14,2,10,6
553,16073,Owyhee,Idaho,42.58016894,-116.1693871,11823,3,2,6,2,3,2,1,2,2,17,14,12,1,5,11,4,3,7,5
554,16075,Payette,Idaho,44.00545243,-116.7647695,23951,3,2,6,2,3,2,1,2,2,17,14,12,1,5,11,4,3,7,10
555,16077,Power,Idaho,42.69254894,-112.8395742,7681,2,5,3,5,4,5,1,1,2,8,9,13,9,3,6,8,7,9,6
556,16079,Shoshone,Idaho,47.35364087,-115.8916749,12882,3,2,6,2,3,2,1,2,2,17,2,12,1,5,11,4,3,7,10
557,16081,Teton,Idaho,43.75303583,-111.2056773,12142,8,9,7,4,6,1,4,3,1,12,12,14,4,2,3,13,9,8,11
558,16083,Twin Falls,Idaho,42.35440512,-114.6685381,86878,3,2,6,2,3,2,1,2,2,17,2,12,1,5,11,4,3,7,10
559,16085,Valley,Idaho,44.76728382,-115.5676773,11392,2,6,2,7,3,2,1,2,2,18,14,2,10,12,2,14,2,9,6
560,16087,Washington,Idaho,44.45275475,-116.7847688,10194,3,2,6,2,3,2,1,2,2,17,2,12,1,5,11,4,3,7,10
561,17001,Adams,Illinois,39.98815591,-91.18786813,65435,8,9,7,4,6,4,3,1,2,18,1,2,7,12,2,11,4,2,1
562,17003,Alexander,Illinois,37.18049267,-89.32910838,5761,2,4,3,5,4,5,3,1,2,2,1,2,7,12,2,14,2,9,6
563,17005,Bond,Illinois,38.88829622,-89.43534887,16426,7,8,5,1,6,1,2,3,1,12,12,14,4,4,14,2,1,12,4
564,17007,Boone,Illinois,42.32359279,-88.82345779,53544,7,8,5,3,5,3,2,3,1,20,7,5,4,4,14,2,1,12,4
565,17009,Brown,Illinois,39.96209138,-90.75068024,6578,1,7,8,3,5,3,2,3,1,3,4,8,12,14,1,9,6,5,9
566,17011,Bureau,Illinois,41.40385234,-89.5283051,32628,7,8,5,3,5,3,2,3,1,9,6,15,5,16,14,2,1,12,4
567,17013,Calhoun,Illinois,39.16840183,-90.66330078,4739,7,8,5,6,1,3,4,3,1,9,6,15,5,16,14,2,1,12,4
568,17015,Carroll,Illinois,42.06823429,-89.93395545,14305,6,5,3,5,4,5,1,1,2,13,13,4,14,10,7,1,11,11,7
569,17017,Cass,Illinois,39.96991073,-90.24734436,12147,7,8,5,3,5,3,2,3,1,20,7,5,5,4,14,2,1,12,4
570,17019,Champaign,Illinois,40.13919438,-88.20046615,209689,7,8,5,6,1,3,4,3,1,9,6,15,5,16,14,2,1,12,4
571,17021,Christian,Illinois,39.54581621,-89.27780482,32304,7,8,5,4,6,5,2,3,1,12,13,4,4,4,7,6,9,11,11
572,17023,Clark,Illinois,39.33425789,-87.78705622,15441,2,5,3,5,4,5,3,1,2,18,1,2,7,12,2,1,2,11,6
573,17025,Clay,Illinois,38.75388572,-88.48914513,13184,2,6,2,7,3,2,1,2,2,18,1,2,7,12,2,14,2,2,1
574,17027,Clinton,Illinois,38.60704876,-89.42385254,37562,7,8,5,6,1,1,4,3,1,12,12,14,8,13,13,13,9,8,11
575,17029,Coles,Illinois,39.51949084,-88.22358557,50621,7,8,5,3,5,3,2,3,1,20,7,5,5,4,14,2,1,12,4
576,17031,Cook,Illinois,41.84144849,-87.81658794,5150233,5,3,1,6,1,1,4,3,1,11,5,16,11,11,4,5,13,3,8
577,17033,Crawford,Illinois,39.0032229,-87.75954624,18667,9,4,3,5,4,5,2,1,1,19,19,3,15,9,9,8,7,4,2
578,17035,Cumberland,Illinois,39.27432424,-88.2401158,10766,6,5,3,5,4,5,3,1,2,2,1,2,7,12,2,1,2,11,7
579,17037,DeKalb,Illinois,41.89373302,-88.76958483,104897,7,9,7,4,6,1,4,3,1,12,12,14,8,13,13,13,9,8,11
580,17039,De Witt,Illinois,40.17514519,-88.90959682,15638,7,9,5,4,6,1,4,3,1,12,12,14,4,4,13,13,9,8,11
581,17041,Douglas,Illinois,39.76768052,-88.21854195,19465,7,8,5,3,5,3,2,3,1,20,7,5,5,4,14,2,1,12,4
582,17043,DuPage,Illinois,41.85116968,-88.08642662,922921,5,3,1,6,1,1,4,3,1,9,6,15,11,16,4,5,13,3,8
583,17045,Edgar,Illinois,39.6809186,-87.74759563,17161,6,4,3,5,4,5,2,1,1,13,13,4,4,10,7,1,11,11,7
584,17047,Edwards,Illinois,38.41353228,-88.05720863,6395,2,6,2,7,2,4,3,1,2,18,1,2,7,12,2,14,2,9,6
585,17049,Effingham,Illinois,39.05935711,-88.58969584,34008,8,9,7,4,6,5,3,1,2,16,1,2,7,12,2,11,2,2,1
586,17051,Fayette,Illinois,39.00072038,-89.02452658,21336,6,5,3,5,4,5,3,1,1,13,13,4,4,10,7,1,11,11,7
587,17053,Ford,Illinois,40.59706922,-88.22350769,12961,7,8,5,6,5,3,4,3,1,9,6,15,5,16,14,2,1,12,4
588,17055,Franklin,Illinois,37.99189086,-88.92567818,38469,2,6,3,5,4,4,3,1,2,18,1,2,7,12,2,14,2,9,6
589,17057,Fulton,Illinois,40.47289135,-90.20862357,34340,7,8,5,3,5,3,2,3,1,20,7,5,5,4,14,2,1,12,4
590,17059,Gallatin,Illinois,37.76430935,-88.22953869,4828,2,6,2,7,2,4,3,1,2,18,1,2,9,3,6,14,2,9,6
591,17061,Greene,Illinois,39.35907414,-90.388865,12969,8,9,7,4,6,1,4,3,1,12,12,14,8,2,3,10,9,8,11
592,17063,Grundy,Illinois,41.28569601,-88.41905692,51054,8,9,7,4,6,1,4,3,1,12,15,1,8,13,13,13,9,8,11
593,17065,Hamilton,Illinois,38.08163641,-88.53883373,8116,4,1,4,7,2,4,3,1,2,2,8,17,7,7,12,3,8,1,3
594,17067,Hancock,Illinois,40.40423981,-91.16313899,17708,2,6,2,2,3,2,1,2,2,17,14,12,10,5,11,4,3,7,10
595,17069,Hardin,Illinois,37.51810645,-88.26873022,3821,2,6,2,7,2,4,3,1,2,18,1,2,7,12,2,14,2,9,6
596,17071,Henderson,Illinois,40.81908672,-90.92491462,6646,3,2,6,2,3,2,1,2,2,15,3,9,10,5,11,4,3,7,1
597,17073,Henry,Illinois,41.3533994,-90.13296166,48913,7,8,5,4,6,1,4,3,1,12,12,14,4,4,13,13,9,12,11
598,17075,Iroquois,Illinois,40.74717633,-87.82466784,27114,8,9,7,4,6,1,4,3,1,16,15,1,8,1,13,13,9,8,11
599,17077,Jackson,Illinois,37.78595185,-89.38232563,56750,7,8,5,3,5,3,2,3,1,6,7,5,5,4,14,2,1,12,4
600,17079,Jasper,Illinois,39.01054275,-88.15437049,9610,2,1,3,5,4,5,3,1,2,18,1,2,7,12,2,14,2,11,6
601,17081,Jefferson,Illinois,38.29980057,-88.9240025,37684,4,4,3,5,4,5,3,1,2,2,1,2,7,12,2,3,12,1,6
602,17083,Jersey,Illinois,39.08869046,-90.35393073,21773,7,8,5,6,1,1,4,3,1,12,12,14,5,4,14,2,1,12,4
603,17085,Jo Daviess,Illinois,42.36542373,-90.21094405,21235,6,9,7,4,6,5,2,3,1,13,13,4,4,10,7,1,11,11,7
604,17087,Johnson,Illinois,37.45939802,-88.88165419,12417,9,4,3,5,4,5,3,1,2,2,9,13,9,9,9,8,7,4,2
605,17089,Kane,Illinois,41.93842729,-88.42861412,532403,7,8,5,6,1,1,4,3,1,12,12,14,5,16,14,2,1,12,4
606,17091,Kankakee,Illinois,41.13746989,-87.86205334,109862,8,9,7,4,6,1,4,3,1,5,15,1,8,13,13,13,9,8,11
607,17093,Kendall,Illinois,41.59081014,-88.42869583,128990,5,3,1,6,1,1,4,3,1,12,12,14,8,13,13,13,9,8,11
608,17095,Knox,Illinois,40.93148779,-90.2133034,49699,8,9,7,4,6,1,4,3,1,12,15,1,8,13,13,13,9,8,11
609,17097,Lake,Illinois,42.3224907,-88.00367925,696535,7,8,5,6,1,1,4,3,1,12,12,14,5,4,14,13,1,12,4
610,17099,LaSalle,Illinois,41.3442613,-88.88633881,108669,7,8,5,6,1,3,4,3,1,9,6,15,5,16,14,2,1,12,4
611,17101,Lawrence,Illinois,38.71987914,-87.72884035,15678,2,5,3,5,4,5,3,1,2,18,1,2,7,12,2,14,2,9,6
612,17103,Lee,Illinois,41.74583951,-89.29977132,34096,7,9,7,4,6,1,4,3,1,12,12,14,4,4,13,13,9,8,11
613,17105,Livingston,Illinois,40.89188292,-88.55784752,35648,7,8,5,6,1,1,4,3,1,12,12,14,5,4,14,2,1,12,4
614,17107,Logan,Illinois,40.12581572,-89.36638784,28618,7,8,5,6,1,1,4,3,1,12,12,14,5,16,14,2,1,12,4
615,17109,McDonough,Illinois,40.45674722,-90.67775541,29682,1,8,5,3,5,3,2,3,1,20,7,5,5,8,14,2,1,12,4
616,17111,McHenry,Illinois,42.32451172,-88.45248227,307774,1,8,5,3,5,3,2,3,1,20,7,5,5,8,14,2,1,12,4
617,17113,McLean,Illinois,40.48996987,-88.84621113,171517,7,8,5,6,1,3,4,3,1,9,6,15,5,16,14,2,1,12,4
618,17115,Macon,Illinois,39.86064913,-88.96342505,104009,7,8,5,3,5,3,2,3,1,9,6,15,5,16,14,2,1,12,4
619,17117,Macoupin,Illinois,39.26119767,-89.92424028,44926,8,9,7,4,6,5,2,3,1,16,13,4,4,4,7,10,9,11,11
620,17119,Madison,Illinois,38.83042506,-89.90422563,262966,7,8,5,6,1,1,4,3,1,12,12,14,5,4,14,2,1,12,4
621,17121,Marion,Illinois,38.64963204,-88.91899208,37205,4,1,7,4,6,4,3,1,2,16,1,2,7,2,2,10,4,1,3
622,17123,Marshall,Illinois,41.0327901,-89.34510444,11438,7,9,5,6,1,1,4,3,1,12,12,14,8,13,13,13,9,8,11
623,17125,Mason,Illinois,40.23917274,-89.91824452,13359,7,8,5,4,6,1,2,3,1,12,13,14,4,4,7,13,9,11,11
624,17127,Massac,Illinois,37.22078441,-88.71036614,13772,2,5,3,5,2,4,3,1,2,18,1,2,7,12,2,14,2,9,6
625,17129,Menard,Illinois,40.02742725,-89.80246001,12196,7,8,5,6,6,1,4,3,1,12,12,14,8,4,13,13,9,8,11
626,17131,Mercer,Illinois,41.20596782,-90.74290052,15437,6,9,7,4,6,5,2,3,1,16,13,4,4,10,7,1,11,11,7
627,17133,Monroe,Illinois,38.27594376,-90.17761038,34637,7,8,5,6,1,3,4,3,1,9,6,15,5,16,14,2,1,12,4
628,17135,Montgomery,Illinois,39.23198845,-89.47809254,28414,7,8,5,1,6,1,2,3,1,6,12,14,2,4,3,6,1,12,4
629,17137,Morgan,Illinois,39.71654544,-90.20255104,33658,1,8,5,3,5,3,2,3,1,20,6,5,5,16,14,2,1,12,4
630,17139,Moultrie,Illinois,39.64187451,-88.62099969,14501,6,9,7,4,6,5,3,1,1,16,13,4,4,10,7,1,11,11,7
631,17141,Ogle,Illinois,42.04165196,-89.32184679,50643,7,9,7,4,6,1,4,3,1,12,13,4,4,4,13,13,9,11,11
632,17143,Peoria,Illinois,40.78702156,-89.76078901,179179,8,9,7,4,6,1,4,3,1,5,15,1,8,13,13,13,9,8,11
633,17145,Perry,Illinois,38.08510853,-89.36856219,20916,9,4,4,1,4,5,2,1,1,2,16,6,2,9,9,6,12,4,2
634,17147,Piatt,Illinois,40.01360584,-88.59319339,16344,7,8,5,6,1,1,4,3,1,12,12,14,5,4,14,2,1,12,4
635,17149,Pike,Illinois,39.62265059,-90.8877017,15561,8,9,7,4,6,5,3,1,1,16,13,4,4,2,7,10,9,11,11
636,17151,Pope,Illinois,37.41391284,-88.56152109,4177,2,6,6,2,3,2,1,2,2,18,14,9,10,12,11,14,2,9,10
637,17153,Pulaski,Illinois,37.22631423,-89.13085001,5335,9,4,3,1,4,5,3,1,1,2,16,6,2,9,9,6,12,4,2
638,17155,Putnam,Illinois,41.2013541,-89.2869272,5739,7,8,5,4,6,1,4,3,1,12,12,14,4,4,13,13,9,8,11
639,17157,Randolph,Illinois,38.05095369,-89.82512254,31782,1,8,5,3,5,3,2,3,1,20,7,5,15,8,9,2,1,12,4
640,17159,Richland,Illinois,38.71240969,-88.08475366,15513,2,4,3,5,4,5,3,1,2,2,1,2,7,12,2,1,2,11,6
641,17161,Rock Island,Illinois,41.46613806,-90.57042164,141879,7,9,5,4,6,1,4,3,1,12,12,14,8,13,13,13,9,8,11
642,17163,St. Clair,Illinois,38.46996033,-89.93063427,259686,7,3,1,6,1,1,4,3,1,9,12,15,5,16,14,2,1,12,8
643,17165,Saline,Illinois,37.75332999,-88.54119706,23491,9,4,4,1,4,5,3,1,1,2,16,6,2,9,9,6,12,4,2
644,17167,Sangamon,Illinois,39.75836914,-89.65872023,194672,7,8,5,6,1,3,4,3,1,9,6,15,5,16,14,2,1,12,4
645,17169,Schuyler,Illinois,40.1571798,-90.61114163,6768,7,8,5,4,6,1,4,3,1,12,12,14,4,4,14,13,1,12,4
646,17171,Scott,Illinois,39.6429169,-90.47814431,4951,8,9,7,4,6,1,3,1,1,7,10,10,16,2,3,10,4,8,11
647,17173,Shelby,Illinois,39.39133527,-88.80611122,21634,6,5,7,4,6,5,3,1,2,16,1,2,7,10,7,1,11,11,7
648,17175,Stark,Illinois,41.09309773,-89.79745866,5342,7,8,5,3,5,3,2,3,1,20,7,5,4,4,7,2,1,12,4
649,17177,Stephenson,Illinois,42.35129217,-89.662598,44498,6,9,7,4,6,1,4,3,1,16,13,4,4,10,7,13,11,11,7
650,17179,Tazewell,Illinois,40.50716185,-89.51404662,131803,8,9,7,4,6,1,4,3,1,12,15,14,8,13,13,13,9,8,11
651,17181,Union,Illinois,37.47119609,-89.25548938,16653,9,4,3,1,4,5,2,1,1,2,16,6,2,9,9,6,12,11,2
652,17183,Vermilion,Illinois,40.18417171,-87.73384359,75758,8,9,7,4,6,5,3,3,1,16,13,4,4,2,7,13,9,11,11
653,17185,Wabash,Illinois,38.44272901,-87.84922065,11520,9,4,3,1,4,5,2,1,1,2,16,6,2,9,9,6,12,4,2
654,17187,Warren,Illinois,40.84925021,-90.6147432,16844,8,9,7,4,6,1,1,2,2,16,15,1,13,1,8,11,10,2,11
655,17189,Washington,Illinois,38.35309213,-89.40982703,13887,4,1,4,1,6,1,4,3,1,6,12,14,16,2,3,10,4,8,11
656,17191,Wayne,Illinois,38.42955355,-88.42586459,16215,2,4,3,5,4,5,3,1,2,2,1,2,7,12,2,8,2,9,6
657,17193,White,Illinois,38.08706198,-88.17657461,13537,10,6,2,7,2,4,3,1,2,18,8,17,3,6,5,12,8,6,3
658,17195,Whiteside,Illinois,41.75509713,-89.91556058,55175,7,9,7,4,6,1,4,3,1,12,13,14,4,4,13,13,9,8,11
659,17197,Will,Illinois,41.44619267,-87.97862712,690743,5,3,1,6,1,1,4,3,1,11,5,16,11,11,4,5,13,3,8
660,17199,Williamson,Illinois,37.73033511,-88.92994027,66597,9,4,3,1,4,5,3,1,1,2,16,6,2,9,7,6,12,11,2
661,17201,Winnebago,Illinois,42.33641854,-89.16085327,282572,7,9,7,4,6,1,4,3,1,12,13,14,4,4,13,13,9,8,11
662,17203,Woodford,Illinois,40.78579374,-89.20973757,38459,8,9,7,4,6,1,4,3,1,12,15,14,8,13,13,13,9,8,11
663,18001,Adams,Indiana,40.7457653,-84.93671406,35777,3,2,6,2,3,2,1,2,2,15,2,9,10,5,11,4,3,7,10
664,18003,Allen,Indiana,41.09194313,-85.06800636,379299,8,9,7,4,6,5,3,1,1,16,13,1,4,1,7,13,9,11,11
665,18005,Bartholomew,Indiana,39.20744865,-85.89558181,83779,6,5,3,5,4,5,3,1,2,16,1,2,7,12,2,1,11,11,7
666,18007,Benton,Indiana,40.60626947,-87.31093999,8748,6,5,3,5,4,5,3,1,2,16,1,2,7,12,2,1,2,11,7
667,18009,Blackford,Indiana,40.47388153,-85.32499702,11758,3,2,6,2,3,2,1,2,2,15,2,9,10,5,11,4,3,7,5
668,18011,Boone,Indiana,40.0509304,-86.46841646,67843,8,9,7,4,6,1,4,3,1,12,12,14,8,13,13,13,9,8,11
669,18013,Brown,Indiana,39.19605589,-86.22868909,15092,3,2,6,2,3,2,1,2,2,15,3,9,10,12,2,11,10,2,1
670,18015,Carroll,Indiana,40.5807832,-86.56198812,20257,2,6,2,2,3,2,1,2,2,18,3,9,7,12,2,11,2,2,1
671,18017,Cass,Indiana,40.76135835,-86.34830753,37689,2,5,2,7,2,4,3,1,2,18,1,2,7,12,2,14,2,9,6
672,18019,Clark,Indiana,38.48015445,-85.70510334,118302,2,6,2,7,2,4,3,1,2,18,1,2,7,12,2,14,2,9,6
673,18021,Clay,Indiana,39.39561833,-87.11723506,26225,2,6,2,7,2,4,3,1,2,18,1,2,7,12,2,14,2,9,6
674,18023,Clinton,Indiana,40.30319754,-86.47277257,32399,6,9,7,4,6,5,3,1,1,16,13,4,4,2,7,1,11,11,7
675,18025,Crawford,Indiana,38.28814402,-86.44518825,10577,10,6,2,7,2,4,3,1,2,18,17,18,3,6,5,12,2,6,10
676,18027,Daviess,Indiana,38.70186039,-87.07185406,33351,2,6,2,7,2,4,3,1,2,18,1,2,7,12,2,14,2,9,6
677,18029,Dearborn,Indiana,39.14647946,-84.97333539,49458,2,6,2,7,2,4,3,2,2,18,1,2,7,12,2,14,2,2,1
678,18031,Decatur,Indiana,39.30712658,-85.50087166,26559,2,6,2,7,2,4,3,1,2,18,1,2,7,12,2,14,2,9,6
679,18033,DeKalb,Indiana,41.39804622,-84.99906934,43475,3,2,6,2,3,2,1,2,2,15,3,9,13,1,8,11,10,2,1
680,18035,Delaware,Indiana,40.22787247,-85.39732772,114135,2,5,2,7,3,2,1,2,2,18,1,2,7,12,2,14,2,2,1
681,18037,Dubois,Indiana,38.36597551,-86.8792417,42736,4,4,4,1,4,5,3,1,2,2,16,6,2,9,12,3,12,1,2
682,18039,Elkhart,Indiana,41.59761169,-85.85875695,206341,6,5,6,4,3,2,1,2,2,15,3,9,13,1,8,11,10,2,1
683,18041,Fayette,Indiana,39.63684962,-85.17797541,23102,2,6,6,2,3,2,1,2,2,18,14,12,10,12,11,14,2,9,6
684,18043,Floyd,Indiana,38.32117957,-85.90385377,78522,2,1,2,7,2,4,3,1,2,18,1,2,7,12,2,14,2,9,6
685,18045,Fountain,Indiana,40.12361933,-87.24217689,16346,2,6,2,7,3,2,1,2,2,18,1,2,10,12,2,14,2,9,10
686,18047,Franklin,Indiana,39.4142482,-85.06062647,22758,3,6,2,2,3,2,1,2,2,15,14,9,10,5,11,4,3,6,10
687,18049,Fulton,Indiana,41.0469907,-86.26252745,19974,3,2,6,2,3,2,1,2,2,17,2,12,1,5,11,4,3,7,5
688,18051,Gibson,Indiana,38.30393723,-87.58054938,33659,9,4,3,5,4,5,2,1,1,2,16,6,2,9,9,6,12,4,2
689,18053,Grant,Indiana,40.51587228,-85.65468702,65769,3,2,6,2,3,2,1,2,2,15,3,9,10,12,8,11,10,2,1
690,18055,Greene,Indiana,39.03630547,-86.96223202,31922,2,6,2,7,2,2,1,2,2,18,1,2,7,12,2,14,2,9,6
691,18057,Hamilton,Indiana,40.07306535,-86.05244729,338011,7,8,5,6,6,1,4,3,1,12,12,14,8,4,13,13,9,8,11
692,18059,Hancock,Indiana,39.82304555,-85.77566351,78168,8,9,7,4,6,1,3,1,1,16,15,1,16,2,3,10,9,8,11
693,18061,Harrison,Indiana,38.19467379,-86.10948271,40515,2,6,2,7,2,4,3,1,2,18,1,2,7,12,2,14,2,9,6
694,18063,Hendricks,Indiana,39.76719009,-86.51037283,170311,8,9,7,4,6,5,3,1,1,16,13,10,16,2,3,10,4,11,11
695,18065,Henry,Indiana,39.93029017,-85.39625719,47972,2,6,2,7,3,2,1,2,2,18,1,9,7,12,2,14,2,2,1
696,18067,Howard,Indiana,40.48527731,-86.11351892,82544,2,5,2,5,2,4,3,1,2,18,1,2,7,12,2,14,2,9,6
697,18069,Huntington,Indiana,40.82907273,-85.48822092,36520,2,6,2,7,3,2,1,2,2,18,1,2,7,12,2,14,2,2,1
698,18071,Jackson,Indiana,38.9091582,-86.03851889,44231,6,5,3,5,4,5,3,1,2,2,1,2,7,10,7,1,11,11,7
699,18073,Jasper,Indiana,41.02078733,-87.11553319,33562,8,9,7,4,6,2,1,2,2,15,3,1,13,1,8,11,10,2,1
700,18075,Jay,Indiana,40.43781032,-85.00576229,20436,3,2,6,2,3,2,1,2,2,1,14,11,10,15,15,14,2,10,5
701,18077,Jefferson,Indiana,38.78576239,-85.43633383,32308,2,5,6,2,3,2,1,2,2,18,1,2,10,12,2,14,2,9,6
702,18079,Jennings,Indiana,38.99588883,-85.62710784,27735,2,6,2,7,3,2,1,2,2,18,1,2,7,12,2,14,2,9,6
703,18081,Johnson,Indiana,39.48994426,-86.10149107,158167,8,9,7,4,6,1,3,1,1,16,10,10,16,2,3,10,4,8,11
704,18083,Knox,Indiana,38.68861576,-87.4194665,36594,2,6,2,7,2,4,3,1,2,18,1,2,7,12,2,14,2,9,6
705,18085,Kosciusko,Indiana,41.24521668,-85.86312322,79456,3,2,6,2,3,2,1,2,2,15,3,9,13,1,8,11,10,2,1
706,18087,LaGrange,Indiana,41.64232188,-85.42674232,39614,3,2,6,2,3,2,1,2,2,15,18,9,6,15,10,7,5,7,5
707,18089,Lake,Indiana,41.41874274,-87.38277575,485493,5,3,1,6,1,1,4,3,1,11,5,16,11,11,4,5,13,3,8
708,18091,LaPorte,Indiana,41.54366008,-86.74072188,109888,8,9,7,4,6,1,4,2,1,5,15,1,8,1,13,13,9,8,11
709,18093,Lawrence,Indiana,38.84112637,-86.48361629,45370,2,6,2,7,2,4,3,1,2,18,1,2,7,12,2,14,2,9,6
710,18095,Madison,Indiana,40.16143691,-85.71964711,129569,8,9,7,4,6,4,3,1,2,16,1,2,7,12,2,11,10,2,1
711,18097,Marion,Indiana,39.78163624,-86.13826325,964582,7,9,7,6,6,1,4,3,1,12,12,14,8,13,13,13,9,8,11
712,18099,Marshall,Indiana,41.32467367,-86.26185087,46258,3,2,6,2,3,2,1,2,2,15,3,9,13,1,8,11,10,2,1
713,18101,Martin,Indiana,38.7099921,-86.80373186,10255,2,6,2,7,2,4,3,1,2,18,1,2,7,12,2,14,2,9,6
714,18103,Miami,Indiana,40.76940965,-86.04525048,35516,2,6,2,2,3,2,1,2,2,18,14,12,10,12,11,14,2,9,10
715,18105,Monroe,Indiana,39.16130004,-86.52414358,148431,7,8,5,3,5,3,2,3,1,20,7,5,5,4,14,2,1,12,4
716,18107,Montgomery,Indiana,40.04034823,-86.89335024,38338,2,5,2,5,3,2,1,2,2,18,1,2,7,12,2,14,2,9,6
717,18109,Morgan,Indiana,39.47899078,-86.44573375,70489,4,9,7,4,6,5,3,1,2,16,1,2,7,2,2,10,4,11,3
718,18111,Newton,Indiana,40.95610449,-87.39635768,13984,8,5,7,4,3,2,1,2,2,15,3,9,13,1,8,11,10,2,1
719,18113,Noble,Indiana,41.39672484,-85.41966713,47744,2,5,6,2,3,2,1,2,2,15,3,9,10,12,2,11,2,2,1
720,18115,Ohio,Indiana,38.955305,-84.96515993,5875,2,4,3,5,4,5,3,1,2,2,1,2,7,12,2,14,2,9,6
721,18117,Orange,Indiana,38.5411892,-86.49523093,19646,2,6,2,7,2,4,3,1,2,18,1,2,7,12,2,14,2,9,6
722,18119,Owen,Indiana,39.31145587,-86.83900724,20799,6,5,7,4,6,5,3,1,2,16,1,4,7,12,7,1,11,11,7
723,18121,Parke,Indiana,39.77202286,-87.20375833,16937,4,1,4,7,2,4,3,1,2,18,1,2,7,12,2,3,2,1,3
724,18123,Perry,Indiana,38.07809328,-86.63741946,19169,2,5,3,5,4,5,3,1,2,18,1,2,7,12,2,14,2,9,6
725,18125,Pike,Indiana,38.40112197,-87.23574907,12389,2,6,2,7,2,4,3,2,2,18,14,2,10,12,2,14,2,9,6
726,18127,Porter,Indiana,41.45986947,-87.06848888,170389,8,9,7,4,6,1,4,3,1,5,15,1,8,13,13,13,9,8,11
727,18129,Posey,Indiana,38.02097333,-87.86480429,25427,9,4,3,1,4,5,3,1,1,2,16,6,2,9,9,6,12,11,2
728,18131,Pulaski,Indiana,41.04166107,-86.69890683,12353,3,2,6,2,3,2,1,2,2,15,3,9,10,12,8,11,10,2,1
729,18133,Putnam,Indiana,39.66437981,-86.84517605,37576,2,6,2,7,2,4,3,2,2,18,1,2,7,12,2,14,2,6,10
730,18135,Randolph,Indiana,40.15734772,-85.01139319,24665,2,5,6,2,3,2,1,2,2,18,1,2,10,12,2,14,2,9,6
731,18137,Ripley,Indiana,39.10235626,-85.26212744,28324,2,6,2,2,3,2,1,2,2,18,1,2,10,12,2,14,2,9,6
732,18139,Rush,Indiana,39.62002287,-85.4655599,16581,2,5,6,2,3,2,1,2,2,18,1,2,7,12,2,14,2,9,6
733,18141,St. Joseph,Indiana,41.61756781,-86.29040834,271826,8,9,7,4,6,1,4,2,1,16,15,1,13,1,8,13,9,8,11
734,18143,Scott,Indiana,38.68672078,-85.74627859,23873,2,5,3,5,2,4,3,1,2,18,1,2,7,12,2,14,2,9,6
735,18145,Shelby,Indiana,39.52305623,-85.7915857,44729,6,5,7,4,6,2,1,2,2,16,1,2,7,12,2,11,2,2,1
736,18147,Spencer,Indiana,38.01519732,-87.0079644,20277,10,6,2,7,2,4,3,2,2,4,17,18,3,6,5,12,2,6,10
737,18149,Starke,Indiana,41.27890281,-86.64686895,22995,3,2,6,2,3,2,1,2,2,15,2,9,1,5,10,4,10,7,5
738,18151,Steuben,Indiana,41.64423868,-85.00101094,34594,3,2,6,2,3,2,1,2,2,15,3,9,10,15,8,11,10,2,1
739,18153,Sullivan,Indiana,39.08952258,-87.41414469,20669,2,6,2,7,2,4,3,1,2,18,1,2,7,12,2,14,2,9,6
740,18155,Switzerland,Indiana,38.82767338,-85.03022429,10751,2,6,2,7,2,4,3,1,2,18,1,2,7,12,2,14,2,9,6
741,18157,Tippecanoe,Indiana,40.38872739,-86.89413959,195732,7,8,5,3,5,3,2,3,1,20,7,5,5,16,14,2,1,12,4
742,18159,Tipton,Indiana,40.31123252,-86.05234925,15148,2,6,2,7,3,2,1,2,2,18,1,9,7,12,2,11,10,2,1
743,18161,Union,Indiana,39.62550777,-84.92497066,7054,2,5,6,2,3,2,1,2,2,18,1,2,10,12,2,14,2,9,6
744,18163,Vanderburgh,Indiana,38.02658833,-87.58763124,181451,9,4,4,1,4,5,3,1,1,2,16,6,2,9,9,6,12,11,2
745,18165,Vermillion,Indiana,39.8523352,-87.46160542,15498,2,6,2,7,3,2,1,2,2,18,1,2,10,12,2,14,2,9,6
746,18167,Vigo,Indiana,39.42944561,-87.39169027,107038,8,9,7,4,6,5,3,1,1,16,1,2,7,2,3,10,4,11,11
747,18169,Wabash,Indiana,40.84704239,-85.79328272,30996,3,2,6,2,3,2,1,2,2,15,2,9,10,5,11,4,3,7,1
748,18171,Warren,Indiana,40.34728141,-87.35602659,8265,2,6,2,7,2,4,3,1,2,18,1,2,7,12,2,14,2,9,6
749,18173,Warrick,Indiana,38.08922676,-87.2716085,62998,9,4,3,1,4,5,3,1,2,2,16,6,2,9,2,6,12,11,2
750,18175,Washington,Indiana,38.60219804,-86.1049363,28036,2,6,2,5,2,4,3,1,2,18,1,2,7,12,2,14,2,9,6
751,18177,Wayne,Indiana,39.8633444,-85.01044989,65884,2,5,2,7,2,4,3,1,2,18,1,2,7,12,2,14,2,9,6
752,18179,Wells,Indiana,40.72934187,-85.22132966,28296,3,2,6,2,3,2,1,2,2,15,2,9,1,5,11,4,3,7,10
753,18181,White,Indiana,40.74911165,-86.86492015,24102,8,9,7,4,6,2,1,2,2,16,3,2,13,1,8,11,10,2,1
754,18183,Whitley,Indiana,41.13863784,-85.50791236,33964,8,5,7,4,3,2,1,2,2,15,3,9,13,1,8,11,10,2,1
755,19001,Adair,Iowa,41.33075609,-94.47105874,7152,3,2,6,2,3,2,1,2,2,15,2,9,6,5,10,4,5,7,5
756,19003,Adams,Iowa,41.02903567,-94.69932645,3602,3,2,6,2,3,2,1,2,2,14,18,7,6,15,10,7,5,7,5
757,19005,Allamakee,Iowa,43.28383218,-91.37860922,13687,3,2,6,2,3,2,1,2,2,15,3,9,10,5,11,11,10,2,1
758,19007,Appanoose,Iowa,40.74324454,-92.86865906,12426,3,2,6,2,3,2,1,2,2,14,2,7,6,5,10,4,5,7,5
759,19009,Audubon,Iowa,41.6844628,-94.90581859,5496,6,5,6,5,3,2,1,2,2,1,11,11,14,10,15,1,11,10,7
760,19011,Benton,Iowa,42.08011739,-92.06463573,25645,6,5,6,2,3,2,1,2,2,1,11,11,14,10,15,11,11,10,1
761,19013,Black Hawk,Iowa,42.4704581,-92.30524729,131228,6,5,3,5,4,5,2,1,1,13,13,4,4,10,7,1,11,11,7
762,19015,Boone,Iowa,42.03657094,-93.9313999,26234,3,2,6,2,3,2,1,2,2,15,3,9,10,15,15,11,10,2,1
763,19017,Bremer,Iowa,42.77461496,-92.31795937,25062,3,5,6,2,3,2,1,2,2,1,3,11,10,15,15,7,5,10,1
764,19019,Buchanan,Iowa,42.4709188,-91.83510825,21175,3,2,6,2,3,2,1,2,2,1,18,11,10,15,15,7,5,10,5
765,19021,Buena Vista,Iowa,42.73545875,-95.15100162,19620,9,4,3,5,4,5,2,1,1,19,19,3,15,9,9,8,7,4,2
766,19023,Butler,Iowa,42.73172833,-92.79015971,14439,3,2,6,2,3,2,1,2,2,17,14,12,10,5,11,4,5,7,5
767,19025,Calhoun,Iowa,42.38521079,-94.64046046,9668,2,5,3,5,3,2,1,2,2,18,11,11,14,12,2,14,2,9,6
768,19027,Carroll,Iowa,42.03617207,-94.86032705,20165,6,5,3,5,4,5,3,1,2,13,11,11,14,10,7,1,11,11,7
769,19029,Cass,Iowa,41.33149454,-94.92792482,12836,3,2,6,2,3,2,1,2,2,14,18,7,6,15,10,7,5,7,5
770,19031,Cedar,Iowa,41.77233777,-91.13246684,18627,6,5,3,5,4,5,1,1,2,13,11,11,14,10,7,1,11,11,7
771,19033,Cerro Gordo,Iowa,43.08177563,-93.2612239,42450,3,5,6,2,3,2,1,2,2,1,18,11,6,15,15,7,5,10,5
772,19035,Cherokee,Iowa,42.73538914,-95.62389402,11235,6,5,3,5,3,2,1,2,2,1,11,11,14,12,15,14,2,10,7
773,19037,Chickasaw,Iowa,43.06001295,-92.31773347,11933,6,5,6,2,3,2,1,2,2,1,11,11,14,15,15,7,5,10,5
774,19039,Clarke,Iowa,41.02868181,-93.78499767,9395,3,2,6,2,3,2,1,2,2,17,2,12,1,5,11,4,3,7,5
775,19041,Clay,Iowa,43.08247182,-95.15096481,16016,2,5,6,5,3,2,1,2,2,1,11,11,10,12,15,14,2,10,6
776,19043,Clayton,Iowa,42.84443388,-91.34133693,17549,3,2,6,2,3,2,1,2,2,15,18,9,6,15,10,7,5,7,5
777,19045,Clinton,Iowa,41.89981633,-90.53275096,46429,6,5,6,5,3,2,1,2,2,1,11,11,14,10,15,1,11,10,7
778,19047,Crawford,Iowa,42.03718237,-95.3819718,16820,2,6,2,7,2,4,3,1,2,18,17,18,3,12,2,14,2,9,6
779,19049,Dallas,Iowa,41.68560356,-94.04127625,93453,6,5,3,5,4,5,1,2,2,1,11,11,14,10,2,1,11,11,7
780,19051,Davis,Iowa,40.74773536,-92.41005468,9000,3,2,6,2,3,2,1,2,2,17,2,12,1,5,11,4,3,7,5
781,19053,Decatur,Iowa,40.73742757,-93.78645949,7870,3,5,6,2,3,2,1,2,2,1,18,11,6,15,15,7,5,10,5
782,19055,Delaware,Iowa,42.47104597,-91.3664492,17011,3,5,6,2,3,2,1,2,2,1,18,11,6,15,15,7,5,10,5
783,19057,Des Moines,Iowa,40.92012606,-91.18326592,38967,2,6,2,2,3,2,1,2,2,17,14,12,1,5,11,4,3,7,10
784,19059,Dickinson,Iowa,43.37787725,-95.1510206,17258,3,2,6,2,3,2,1,2,2,15,3,9,10,15,10,7,5,7,5
785,19061,Dubuque,Iowa,42.46815349,-90.88181925,97311,3,2,6,2,3,2,1,2,2,1,18,7,6,15,10,7,5,10,5
786,19063,Emmet,Iowa,43.37782951,-94.67858943,9208,3,2,6,2,3,2,1,2,2,15,18,9,10,15,10,7,5,7,5
787,19065,Fayette,Iowa,42.86271799,-91.8441231,19650,3,2,6,2,3,2,1,2,2,15,2,9,10,5,11,4,3,7,5
788,19067,Floyd,Iowa,43.0600053,-92.78940097,15642,3,5,6,2,3,2,1,2,2,1,18,11,6,15,15,7,5,10,5
789,19069,Franklin,Iowa,42.73270384,-93.26256925,10070,3,2,6,2,3,2,1,2,2,1,14,11,10,15,15,7,5,10,5
790,19071,Fremont,Iowa,40.7454272,-95.60129045,6960,3,5,6,2,3,2,1,2,2,1,11,11,10,15,15,7,5,10,5
791,19073,Greene,Iowa,42.03614551,-94.39658081,8888,2,5,6,2,3,2,1,2,2,1,14,11,10,12,15,14,2,10,6
792,19075,Grundy,Iowa,42.40183723,-92.78829551,12232,2,5,6,2,3,2,1,2,2,18,14,2,10,12,2,14,2,9,6
793,19077,Guthrie,Iowa,41.68378965,-94.50111014,10689,6,5,3,5,3,2,1,2,2,1,11,11,14,10,15,1,11,10,7
794,19079,Hamilton,Iowa,42.38382428,-93.70197703,14773,2,5,6,2,3,2,1,2,2,1,14,11,10,12,15,14,2,10,6
795,19081,Hancock,Iowa,43.08178477,-93.73454884,10630,3,2,6,2,3,2,1,2,2,14,18,7,6,15,10,7,5,7,5
796,19083,Hardin,Iowa,42.38353877,-93.23654611,16846,6,5,3,5,4,5,1,2,2,13,11,11,14,10,15,1,11,10,7
797,19085,Harrison,Iowa,41.68330137,-95.81558439,14049,6,5,6,5,3,2,1,2,2,1,11,11,14,10,15,14,2,10,7
798,19087,Henry,Iowa,40.98767962,-91.54436349,19954,2,5,6,2,3,2,1,2,2,1,14,11,10,12,15,14,2,10,5
799,19089,Howard,Iowa,43.35671042,-92.31702714,9158,3,2,6,2,3,2,1,2,2,14,2,7,6,5,10,4,5,7,5
800,19091,Humboldt,Iowa,42.7764426,-94.20722537,9558,8,9,7,4,6,2,1,2,2,15,3,9,13,1,8,11,10,2,1
801,19093,Ida,Iowa,42.38696136,-95.51355387,6860,2,5,6,2,3,2,1,2,2,1,11,11,10,15,15,7,5,10,6
802,19095,Iowa,Iowa,41.68630265,-92.0643373,16184,6,5,3,5,4,5,1,1,2,13,11,4,14,10,7,1,11,11,7
803,19097,Jackson,Iowa,42.17178824,-90.57354837,19439,6,5,6,2,3,2,1,2,2,1,11,11,14,15,15,7,5,10,1
804,19099,Jasper,Iowa,41.68576082,-93.05567785,37185,3,2,6,2,3,2,1,2,2,17,2,12,10,5,11,4,3,7,5
805,19101,Jefferson,Iowa,41.03192394,-91.94849466,18295,3,2,6,2,3,2,1,2,2,17,14,12,10,5,11,4,5,7,5
806,19103,Johnson,Iowa,41.67169354,-91.58754744,151140,7,8,5,3,5,5,2,3,1,20,7,5,4,4,7,6,1,11,4
807,19105,Jones,Iowa,42.12118609,-91.13139641,20681,6,5,6,2,3,2,1,2,2,1,11,11,14,15,15,7,5,10,5
808,19107,Keokuk,Iowa,41.33649833,-92.1785067,10246,3,2,6,2,3,2,1,2,2,17,14,12,10,15,11,7,5,7,5
809,19109,Kossuth,Iowa,43.20405458,-94.20691791,14813,3,2,6,2,3,2,1,2,2,15,2,9,1,5,11,4,3,7,10
810,19111,Lee,Iowa,40.64181461,-91.48183025,33657,10,6,2,7,3,2,1,2,2,17,14,12,1,5,11,4,3,6,10
811,19113,Linn,Iowa,42.07923082,-91.59809485,226706,6,5,3,5,4,5,2,1,1,13,13,4,4,10,7,1,11,11,7
812,19115,Louisa,Iowa,41.21842119,-91.26102611,11035,2,6,6,2,3,2,1,2,2,18,14,2,10,12,2,14,2,9,6
813,19117,Lucas,Iowa,41.02958964,-93.32780803,8600,3,2,6,2,3,2,1,2,2,17,14,12,10,5,11,4,5,7,5
814,19119,Lyon,Iowa,43.38107862,-96.20926845,11755,6,5,6,4,3,2,1,2,2,1,3,11,14,12,8,11,10,2,1
815,19121,Madison,Iowa,41.33081904,-94.01554631,16338,3,2,6,2,3,2,1,2,2,17,2,12,1,5,11,4,3,7,10
816,19123,Mahaska,Iowa,41.33521503,-92.64083907,22095,3,2,6,2,3,2,1,2,2,17,2,12,6,5,10,4,5,7,5
817,19125,Marion,Iowa,41.33445101,-93.09934783,33253,3,2,6,2,3,2,1,2,2,17,14,12,10,5,11,4,3,7,5
818,19127,Marshall,Iowa,42.03586837,-92.9990819,39369,6,5,3,5,4,5,3,1,2,13,11,4,14,10,7,1,11,11,7
819,19129,Mills,Iowa,41.03299766,-95.61920963,15109,6,5,3,5,4,5,1,2,2,1,11,11,14,10,15,1,11,10,7
820,19131,Mitchell,Iowa,43.35638371,-92.78887719,10586,3,2,6,2,3,2,1,2,2,15,3,9,10,15,10,7,5,7,5
821,19133,Monona,Iowa,42.05220391,-95.95743843,8615,3,2,6,2,3,2,1,2,2,1,14,12,10,15,15,7,5,10,5
822,19135,Monroe,Iowa,41.02988815,-92.8690667,7707,3,2,6,2,3,2,1,2,2,17,14,12,10,5,11,4,3,7,10
823,19137,Montgomery,Iowa,41.03018714,-95.15642896,9917,3,2,6,2,3,2,1,2,2,17,14,12,10,15,11,7,5,7,5
824,19139,Muscatine,Iowa,41.48370744,-91.1121697,42664,6,5,3,5,4,5,3,1,2,13,1,4,14,10,7,1,11,11,7
825,19141,O'Brien,Iowa,43.08310673,-95.62474482,13753,6,5,3,5,4,5,1,2,2,13,11,4,14,10,7,1,11,11,7
826,19143,Osceola,Iowa,43.37824276,-95.62422844,5958,3,2,6,2,3,2,1,2,2,1,3,9,6,15,10,7,5,10,5
827,19145,Page,Iowa,40.7393172,-95.1497813,15107,3,2,6,2,3,2,1,2,2,17,2,12,1,5,11,4,3,7,5
828,19147,Palo Alto,Iowa,43.08193849,-94.67824621,8886,2,5,6,2,3,2,1,2,2,18,14,2,10,12,2,14,2,9,6
829,19149,Plymouth,Iowa,42.737633,-96.21366621,25177,6,5,3,5,3,2,1,2,2,1,11,11,14,10,15,1,11,10,7
830,19151,Pocahontas,Iowa,42.73420133,-94.67862564,6619,3,2,6,2,3,2,1,2,2,1,14,11,10,12,15,14,2,10,5
831,19153,Polk,Iowa,41.68679484,-93.57767461,490161,6,5,3,5,4,5,3,1,2,13,13,4,14,10,7,1,11,11,7
832,19155,Pottawattamie,Iowa,41.33640314,-95.53907776,93206,6,5,3,5,4,5,1,1,2,13,11,11,14,10,7,1,11,11,7
833,19157,Poweshiek,Iowa,41.68625425,-92.53155731,18504,3,2,6,2,3,2,1,2,2,14,18,7,6,15,10,7,5,7,5
834,19159,Ringgold,Iowa,40.73518949,-94.24368535,4894,6,5,6,5,3,2,1,2,2,1,11,11,14,12,15,14,2,10,6
835,19161,Sac,Iowa,42.38624071,-95.10547892,9721,6,5,3,5,4,5,1,2,2,1,11,11,14,10,15,1,11,10,7
836,19163,Scott,Iowa,41.63935978,-90.61959493,172943,6,9,7,4,6,5,1,2,2,16,13,4,4,10,7,1,11,11,7
837,19165,Shelby,Iowa,41.6850066,-95.31015553,11454,3,2,6,2,3,2,1,2,2,14,18,7,10,15,10,7,5,7,5
838,19167,Sioux,Iowa,43.08221074,-96.1767568,34855,6,5,3,5,4,5,1,2,2,13,11,4,14,10,7,1,11,11,7
839,19169,Story,Iowa,42.03621213,-93.46499005,97117,6,4,3,5,4,5,2,1,1,13,13,4,14,10,7,1,11,11,7
840,19171,Tama,Iowa,42.07991767,-92.53266945,16854,6,5,6,5,3,2,1,2,2,1,11,11,14,12,2,14,2,10,7
841,19173,Taylor,Iowa,40.73710579,-94.69778563,6121,3,2,6,2,3,2,1,2,2,14,18,7,6,15,10,7,5,7,5
842,19175,Union,Iowa,41.0277278,-94.24234847,12241,3,2,6,2,3,2,1,2,2,14,18,7,6,15,10,7,5,7,5
843,19177,Van Buren,Iowa,40.75326764,-91.95017958,7044,3,2,6,2,3,2,1,2,2,15,14,9,10,5,11,4,5,7,5
844,19179,Wapello,Iowa,41.03064984,-92.40954728,34969,3,2,6,2,3,2,1,2,2,14,18,7,10,15,10,7,5,7,5
845,19181,Warren,Iowa,41.33559454,-93.56007641,51466,2,5,6,2,3,2,1,2,2,1,14,11,10,12,2,14,2,10,6
846,19183,Washington,Iowa,41.33577126,-91.71725711,21965,2,5,6,2,3,2,1,2,2,18,1,2,10,12,2,14,2,9,6
847,19185,Wayne,Iowa,40.73969028,-93.32752197,6441,3,2,6,2,3,2,1,2,2,14,18,7,6,15,10,7,5,7,5
848,19187,Webster,Iowa,42.42853483,-94.17987389,35904,6,5,7,4,6,2,1,2,2,16,1,2,7,12,2,11,2,2,1
849,19189,Winnebago,Iowa,43.37751174,-93.73407298,10354,3,2,6,2,3,2,1,2,2,14,18,7,6,15,10,7,5,7,5
850,19191,Winneshiek,Iowa,43.29094334,-91.84422722,19991,3,2,6,2,3,2,1,2,2,15,3,9,6,15,10,7,5,7,5
851,19193,Woodbury,Iowa,42.38979414,-96.0459439,103107,6,5,3,5,4,5,1,1,2,13,11,4,14,10,7,1,11,11,7
852,19195,Worth,Iowa,43.37750768,-93.26087602,7381,2,5,6,2,3,2,1,2,2,1,11,11,10,12,2,14,2,10,6
853,19197,Wright,Iowa,42.73305373,-93.73515113,12562,8,5,7,4,3,2,1,2,2,15,3,9,13,1,8,11,10,2,1
854,20001,Allen,Kansas,37.88582951,-95.30030847,12369,6,5,3,5,3,5,1,2,2,18,1,2,14,12,2,1,11,11,7
855,20003,Anderson,Kansas,38.21413251,-95.29272815,7858,7,8,5,1,4,5,2,3,1,6,7,14,4,4,7,6,1,12,4
856,20005,Atchison,Kansas,39.53185661,-95.30870026,16073,6,5,3,5,4,5,3,1,2,16,1,4,7,10,7,1,11,11,7
857,20007,Barber,Kansas,37.2288586,-98.68460053,4427,6,5,3,5,4,5,1,1,2,13,13,4,14,10,7,1,11,11,7
858,20009,Barton,Kansas,38.47889676,-98.75636726,25779,2,5,6,5,3,2,1,2,2,1,11,11,10,12,15,14,2,9,6
859,20011,Bourbon,Kansas,37.85508555,-94.84865997,14534,4,1,4,1,4,5,3,1,1,2,16,6,2,2,3,10,12,1,3
860,20013,Brown,Kansas,39.82652589,-95.56421698,9564,6,5,7,4,3,2,1,2,2,16,3,2,13,12,8,11,10,2,1
861,20015,Butler,Kansas,37.78134351,-96.83878537,66911,4,4,4,1,4,5,3,1,1,2,16,6,2,2,7,6,12,11,2
862,20017,Chase,Kansas,38.30292938,-96.59563862,2648,6,5,3,5,4,5,2,1,1,13,13,4,14,10,7,1,11,11,7
863,20019,Chautauqua,Kansas,37.14994405,-96.2454192,3250,3,2,6,2,3,2,1,2,2,17,14,12,10,5,11,4,3,7,10
864,20021,Cherokee,Kansas,37.16928494,-94.8462897,19939,9,4,3,5,4,5,2,1,1,19,19,6,15,9,9,6,12,4,2
865,20023,Cheyenne,Kansas,39.78580976,-101.7318201,2657,6,5,3,5,4,5,3,1,1,16,13,4,4,10,7,1,11,11,7
866,20025,Clark,Kansas,37.23577007,-99.81883015,1994,2,6,2,7,2,4,3,1,2,18,1,2,7,12,2,14,2,2,1
867,20027,Clay,Kansas,39.34948772,-97.16518128,8002,2,6,2,7,2,4,3,1,2,18,1,2,7,12,2,14,2,9,6
868,20029,Cloud,Kansas,39.48028352,-97.64925343,8786,3,2,6,2,3,2,1,2,2,14,18,7,6,15,10,7,5,7,5
869,20031,Coffey,Kansas,38.2365018,-95.73379515,8179,8,9,7,4,6,2,1,2,2,16,3,2,13,1,8,11,10,2,1
870,20033,Comanche,Kansas,37.1911452,-99.27113247,1700,3,5,6,2,3,2,1,2,2,1,18,11,6,15,15,7,5,10,5
871,20035,Cowley,Kansas,37.23781842,-96.83776647,34908,8,9,7,4,6,5,3,1,2,16,1,2,7,2,2,11,4,2,1
872,20037,Crawford,Kansas,37.50675523,-94.85245778,38818,9,4,3,1,4,5,2,1,1,2,16,6,2,9,9,6,12,11,2
873,20039,Decatur,Kansas,39.78468441,-100.4594081,2827,3,2,6,2,3,2,1,2,2,14,18,7,6,15,10,7,5,7,5
874,20041,Dickinson,Kansas,38.86600962,-97.15532383,18466,2,6,6,2,3,2,1,2,2,18,14,2,10,12,2,14,2,9,6
875,20043,Doniphan,Kansas,39.79067154,-95.14056866,7600,2,5,3,5,3,2,1,2,2,18,1,2,7,12,2,14,2,9,6
876,20045,Douglas,Kansas,38.88503636,-95.2925121,122259,7,8,5,3,5,3,2,3,1,20,7,5,5,4,14,2,1,12,4
877,20047,Edwards,Kansas,37.88735543,-99.31263309,2798,3,2,6,2,3,2,1,2,2,14,18,7,6,15,10,7,5,7,5
878,20049,Elk,Kansas,37.45338105,-96.24369667,2530,2,5,3,5,4,5,1,2,2,8,11,11,14,10,15,1,2,9,6
879,20051,Ellis,Kansas,38.91458712,-99.31751551,28553,6,4,3,5,4,5,2,1,1,13,13,4,4,10,7,1,11,11,7
880,20053,Ellsworth,Kansas,38.69677695,-98.20462799,6102,6,5,3,5,4,5,3,1,2,18,1,2,7,10,2,1,11,11,7
881,20055,Finney,Kansas,38.04340344,-100.7381938,36467,6,5,3,5,4,5,3,1,2,13,11,4,14,10,7,1,11,11,7
882,20057,Ford,Kansas,37.69200114,-99.88825298,33619,7,8,5,3,5,3,2,3,1,20,7,5,5,4,14,2,1,12,4
883,20059,Franklin,Kansas,38.56443815,-95.28644341,25544,8,9,7,4,6,1,3,1,1,16,15,1,16,2,3,10,9,8,11
884,20061,Geary,Kansas,38.99871131,-96.7577178,31670,1,7,8,3,5,3,2,3,1,3,4,8,12,14,1,9,6,5,9
885,20063,Gove,Kansas,38.91588178,-100.4829321,2636,3,2,6,2,3,2,1,2,2,1,18,7,6,15,15,7,5,10,5
886,20065,Graham,Kansas,39.34987223,-99.88332493,2482,2,5,6,5,3,2,1,2,2,1,1,11,10,12,2,14,2,10,6
887,20067,Grant,Kansas,37.56227336,-101.3079758,7150,6,5,3,5,4,5,2,1,1,13,13,4,4,10,7,1,11,11,7
888,20069,Gray,Kansas,37.73836671,-100.4369088,5988,2,5,6,2,3,2,1,2,2,1,14,11,10,12,15,14,2,10,6
889,20071,Greeley,Kansas,38.4808095,-101.8061079,1232,6,5,3,5,4,5,1,2,2,13,11,11,14,10,7,1,11,11,7
890,20073,Greenwood,Kansas,37.8774388,-96.23250453,5982,4,1,4,1,4,5,3,1,1,2,16,6,2,2,12,3,12,1,3
891,20075,Hamilton,Kansas,37.99978709,-101.7921066,2539,6,5,6,5,3,2,1,2,2,1,11,11,14,10,15,1,11,10,7
892,20077,Harper,Kansas,37.19175361,-98.07578384,5436,3,2,6,2,3,2,1,2,2,15,3,9,13,1,8,11,10,2,1
893,20079,Harvey,Kansas,38.04293782,-97.42747573,34429,6,4,3,5,4,5,2,1,1,13,13,4,4,10,7,1,11,11,7
894,20081,Haskell,Kansas,37.5620394,-100.8710738,3968,6,5,3,5,3,2,1,2,2,1,11,11,14,10,15,1,11,10,7
895,20083,Hodgeman,Kansas,38.08780079,-99.89829881,1794,6,9,7,4,6,5,2,3,1,13,13,4,4,4,7,1,11,11,7
896,20085,Jackson,Kansas,39.41673394,-95.79356799,13171,6,5,7,4,6,5,3,1,2,16,13,4,7,10,7,1,11,11,7
897,20087,Jefferson,Kansas,39.2347941,-95.38289232,19043,6,4,3,1,4,5,3,1,1,2,13,4,4,2,7,1,12,11,7
898,20089,Jewell,Kansas,39.78470589,-98.21820662,2879,3,2,6,2,3,2,1,2,2,14,18,7,6,15,10,7,5,7,5
899,20091,Johnson,Kansas,38.88548175,-94.82250877,602401,7,8,5,3,5,3,2,3,1,20,7,5,5,4,14,2,1,12,4
900,20093,Kearny,Kansas,38.00017981,-101.321681,3838,3,2,6,2,3,2,1,2,2,15,3,9,13,1,8,11,10,2,1
901,20095,Kingman,Kansas,37.55909527,-98.13638678,7152,6,5,7,4,3,2,1,2,2,16,3,2,7,12,2,11,10,2,1
902,20097,Kiowa,Kansas,37.55848695,-99.2856537,2475,2,5,6,5,3,2,1,2,2,18,1,2,10,12,2,14,2,9,6
903,20099,Labette,Kansas,37.19113093,-95.29849679,19618,9,4,3,5,4,5,2,1,1,2,16,4,2,9,7,6,12,11,2
904,20101,Lane,Kansas,38.48119447,-100.4660754,1535,3,5,6,2,3,2,1,2,2,1,11,11,14,15,15,7,5,10,5
905,20103,Leavenworth,Kansas,39.20183497,-95.03620809,81758,9,4,3,1,4,5,2,1,1,2,16,6,2,9,9,6,12,11,2
906,20105,Lincoln,Kansas,39.04549684,-98.20756994,2962,6,5,6,5,3,2,1,2,2,1,3,11,14,12,2,11,2,2,1
907,20107,Linn,Kansas,38.21267844,-94.84254089,9703,2,6,2,7,2,4,3,2,2,18,1,2,7,12,2,14,2,2,1
908,20109,Logan,Kansas,38.91735806,-101.148475,2794,6,5,6,4,3,2,1,2,2,1,11,11,14,10,15,1,11,10,7
909,20111,Lyon,Kansas,38.45576156,-96.15275715,33195,9,8,5,5,4,5,2,3,1,13,7,4,4,4,7,6,12,11,2
910,20113,McPherson,Kansas,38.39184858,-97.64769869,28542,6,5,3,5,4,5,3,1,2,18,1,2,7,12,2,1,11,11,7
911,20115,Marion,Kansas,38.35855394,-97.0985251,11884,6,5,7,5,6,2,1,2,2,16,1,2,14,12,2,1,11,2,7
912,20117,Marshall,Kansas,39.78359669,-96.52278974,9707,3,5,6,2,3,2,1,2,2,15,3,9,13,1,8,11,10,2,1
913,20119,Meade,Kansas,37.23859987,-100.364831,4033,6,9,3,4,6,5,2,3,1,13,13,4,4,10,7,1,11,11,7
914,20121,Miami,Kansas,38.56383358,-94.83832189,34237,2,5,7,4,6,4,3,1,2,18,1,2,7,12,2,14,2,2,6
915,20123,Mitchell,Kansas,39.39331582,-98.20906732,5979,9,4,3,5,4,5,2,1,1,13,19,4,15,9,7,1,11,11,2
916,20125,Montgomery,Kansas,37.19236568,-95.74329258,31829,9,4,3,1,4,5,3,1,1,2,16,6,2,9,9,6,12,4,2
917,20127,Morris,Kansas,38.68827511,-96.65128437,5620,9,4,5,3,4,5,2,3,1,13,7,4,4,4,9,6,12,11,2
918,20129,Morton,Kansas,37.19141121,-101.7992519,2587,3,5,6,2,3,2,1,2,2,1,3,11,13,15,15,11,10,10,1
919,20131,Nemaha,Kansas,39.78345387,-96.01392079,10231,6,5,3,5,4,5,1,2,2,13,13,4,14,10,7,1,11,11,7
920,20133,Neosho,Kansas,37.55862897,-95.30670046,16007,6,4,3,5,4,5,2,1,1,13,13,4,14,10,7,1,11,11,7
921,20135,Ness,Kansas,38.47974157,-99.91547333,2750,6,5,7,4,6,5,3,1,2,16,1,2,7,12,2,1,2,11,7
922,20137,Norton,Kansas,39.78443827,-99.90286639,5361,6,5,3,5,4,5,1,2,2,13,11,11,14,10,15,1,11,10,7
923,20139,Osage,Kansas,38.65235984,-95.72707998,15949,8,9,7,4,6,5,3,1,2,16,1,2,7,12,2,11,4,11,1
924,20141,Osborne,Kansas,39.3503437,-98.76753828,3421,3,2,6,2,3,2,1,2,2,15,3,9,10,5,11,11,10,2,1
925,20143,Ottawa,Kansas,39.13237408,-97.65020313,5704,2,5,6,2,3,2,1,2,2,18,14,2,10,12,2,14,2,9,6
926,20145,Pawnee,Kansas,38.18108732,-99.23692334,6414,2,5,6,2,3,2,1,2,2,1,14,11,10,15,15,14,2,10,5
927,20147,Phillips,Kansas,39.78465501,-99.34668865,5234,3,2,6,2,3,2,1,2,2,1,3,9,10,15,15,7,5,10,5
928,20149,Pottawatomie,Kansas,39.37925655,-96.34564657,24383,6,4,3,5,4,5,2,1,1,13,13,4,4,4,7,6,12,11,7
929,20151,Pratt,Kansas,37.64780729,-98.73922153,9164,3,2,6,2,3,2,1,2,2,15,2,9,10,5,11,4,3,7,10
930,20153,Rawlins,Kansas,39.78525843,-101.0761617,2530,3,2,6,2,3,2,1,2,2,14,18,7,6,15,10,7,5,7,5
931,20155,Reno,Kansas,37.95230263,-98.08607292,61998,2,5,6,2,3,2,1,2,2,18,1,2,7,12,2,14,2,9,6
932,20157,Republic,Kansas,39.82799632,-97.65036709,4636,2,5,3,5,4,5,3,1,2,18,1,2,7,12,2,14,2,9,6
933,20159,Rice,Kansas,38.34616184,-98.19992118,9537,6,5,3,5,6,5,3,1,2,18,1,2,7,12,2,14,2,2,7
934,20161,Riley,Kansas,39.28935726,-96.73420026,74232,9,4,3,5,4,5,2,1,1,19,19,3,15,9,9,6,12,4,2
935,20163,Rooks,Kansas,39.35022773,-99.32484567,4920,2,5,6,5,3,2,1,2,2,18,1,2,7,12,2,14,2,9,6
936,20165,Rush,Kansas,38.52275276,-99.30863983,3036,6,5,3,5,4,5,3,1,2,13,13,4,7,10,7,1,11,11,7
937,20167,Russell,Kansas,38.91462787,-98.76254297,6856,3,5,6,2,3,2,1,2,2,1,3,11,13,15,15,11,10,10,1
938,20169,Saline,Kansas,38.78369175,-97.65185177,54224,6,5,3,5,4,5,3,1,2,2,1,2,7,12,7,1,11,11,7
939,20171,Scott,Kansas,38.48222076,-100.9066539,4823,6,5,3,5,4,5,2,1,2,13,13,4,14,10,7,1,11,11,7
940,20173,Sedgwick,Kansas,37.6842718,-97.4608198,516042,9,4,4,1,4,5,2,1,1,2,16,4,2,4,7,6,12,11,2
941,20175,Seward,Kansas,37.19324632,-100.8507201,21428,8,9,7,4,6,1,4,3,1,12,15,1,8,13,13,13,9,8,11
942,20177,Shawnee,Kansas,39.04100763,-95.7557264,176875,9,4,3,1,4,5,3,1,1,2,16,6,2,2,7,6,12,11,2
943,20179,Sheridan,Kansas,39.35018161,-100.4418259,2521,6,5,6,2,3,2,1,2,2,1,3,11,13,1,8,11,10,2,1
944,20181,Sherman,Kansas,39.35147699,-101.7197624,5917,6,5,3,5,3,2,1,2,2,1,11,11,14,10,15,1,11,10,7
945,20183,Smith,Kansas,39.78516566,-98.78566062,3583,3,2,6,2,3,2,1,2,2,15,3,9,6,15,10,7,5,7,5
946,20185,Stafford,Kansas,38.03100851,-98.71762001,4156,3,5,6,2,3,2,1,2,2,1,18,11,10,15,15,7,5,10,5
947,20187,Stanton,Kansas,37.56304714,-101.7843534,2006,3,2,6,2,3,2,1,2,2,15,3,9,10,12,2,14,2,2,1
948,20189,Stevens,Kansas,37.1923008,-101.3118967,5485,6,5,3,5,4,5,1,2,2,13,11,4,14,10,7,1,11,11,7
949,20191,Sumner,Kansas,37.23682549,-97.47721621,22836,2,5,2,7,3,2,1,2,2,18,1,2,7,12,2,14,2,2,1
950,20193,Thomas,Kansas,39.35107575,-101.0553705,7777,6,5,6,5,3,2,1,2,2,1,11,11,14,10,15,1,11,10,7
951,20195,Trego,Kansas,38.91467218,-99.87284448,2803,6,5,7,4,4,5,3,1,2,16,1,2,7,12,2,1,2,11,7
952,20197,Wabaunsee,Kansas,38.95471985,-96.20350509,6931,8,9,7,4,6,2,1,2,2,16,3,1,13,1,8,11,10,2,1
953,20199,Wallace,Kansas,38.91686134,-101.7638876,1518,3,2,6,2,3,2,1,2,2,14,18,7,6,15,10,7,5,7,5
954,20201,Washington,Kansas,39.78420784,-97.0875323,5406,3,2,6,2,3,2,1,2,2,15,3,9,10,12,11,14,2,2,1
955,20203,Wichita,Kansas,38.48178252,-101.3471509,2119,6,5,3,5,4,5,2,1,2,13,13,4,14,10,7,1,11,11,7
956,20205,Wilson,Kansas,37.55937174,-95.74323255,8525,6,5,3,5,4,5,3,1,2,18,1,2,7,12,2,1,2,11,7
957,20207,Woodson,Kansas,37.8865336,-95.74006277,3138,3,2,6,2,3,2,1,2,2,15,3,9,13,5,8,11,10,2,1
958,20209,Wyandotte,Kansas,39.11727348,-94.76378225,165429,7,8,5,1,5,1,2,3,1,6,12,14,5,4,14,2,1,12,4
959,21001,Adair,Kentucky,37.10459774,-85.28129668,19202,3,2,6,2,3,2,1,2,2,17,2,12,1,5,11,4,3,7,5
960,21003,Allen,Kentucky,36.75197631,-86.19457544,21315,2,6,2,7,2,4,3,1,2,18,9,13,9,3,6,14,2,9,6
961,21005,Anderson,Kentucky,38.00671029,-84.99171713,22747,2,2,6,2,3,2,1,2,2,17,14,12,10,12,11,14,2,9,6
962,21007,Ballard,Kentucky,37.05842757,-88.99427697,7888,2,5,3,5,4,5,3,1,2,18,1,2,7,12,2,14,2,9,6
963,21009,Barren,Kentucky,36.96469836,-85.93338945,44249,2,6,2,7,2,4,1,2,2,17,14,12,10,5,11,14,3,9,10
964,21011,Bath,Kentucky,38.14735938,-83.74588932,12500,3,2,6,2,3,2,1,2,2,17,2,12,1,5,11,4,3,7,5
965,21013,Bell,Kentucky,36.73355174,-83.67766671,26032,10,6,2,7,2,4,3,1,2,4,17,18,3,3,5,12,8,6,10
966,21015,Boone,Kentucky,38.97065142,-84.72615357,133581,8,9,7,4,6,5,3,1,1,16,13,4,4,2,7,1,11,11,7
967,21017,Bourbon,Kentucky,38.2054607,-84.21827874,19788,2,6,2,7,2,4,3,1,2,18,1,2,9,12,2,14,2,9,6
968,21019,Boyd,Kentucky,38.36176608,-82.68652187,46718,2,5,3,5,4,5,3,1,2,18,1,2,7,12,2,14,2,9,6
969,21021,Boyle,Kentucky,37.62680923,-84.8633779,30060,2,6,2,7,2,4,3,1,2,10,9,13,9,3,6,3,8,9,6
970,21023,Bracken,Kentucky,38.69158994,-84.08532444,8303,2,5,6,2,3,2,1,2,2,18,1,2,10,12,2,14,2,10,6
971,21025,Breathitt,Kentucky,37.52333168,-83.31959161,12630,2,6,2,7,2,4,3,1,2,8,14,13,9,3,6,14,2,9,6
972,21027,Breckinridge,Kentucky,37.77377239,-86.42885017,20477,2,6,2,7,3,2,1,2,2,18,14,2,10,12,2,14,2,9,6
973,21029,Bullitt,Kentucky,37.97162523,-85.68955617,81676,9,4,3,1,4,5,3,1,1,2,16,6,2,9,9,6,12,4,2
974,21031,Butler,Kentucky,37.20946153,-86.68748787,12879,10,6,2,2,3,2,1,2,2,17,14,12,1,5,11,4,3,7,10
975,21033,Caldwell,Kentucky,37.14749129,-87.86948214,12747,3,2,6,2,3,2,1,2,2,17,14,12,10,5,11,4,3,7,5
976,21035,Calloway,Kentucky,36.62093411,-88.2731593,39001,2,6,2,7,2,4,3,1,2,18,1,2,7,12,2,14,2,9,6
977,21037,Campbell,Kentucky,38.94384345,-84.37875208,93584,8,9,7,4,6,5,3,1,1,16,10,10,16,2,3,10,4,8,11
978,21039,Carlisle,Kentucky,36.85372876,-88.9669222,4760,2,6,2,7,3,2,1,2,2,18,1,2,7,12,2,14,2,9,6
979,21041,Carroll,Kentucky,38.66599534,-85.12601074,10631,2,5,3,5,2,4,3,1,2,18,1,2,7,12,2,14,2,9,6
980,21043,Carter,Kentucky,38.31690743,-83.05092385,26797,2,6,2,7,2,4,3,1,2,18,9,13,9,3,6,14,2,9,6
981,21045,Casey,Kentucky,37.32533118,-84.92726209,16159,10,6,2,7,3,2,1,2,2,17,14,12,1,5,11,4,3,6,10
982,21047,Christian,Kentucky,36.89267803,-87.49055367,70461,2,6,2,7,2,4,1,2,2,17,14,12,10,5,11,14,3,9,10
983,21049,Clark,Kentucky,37.9689263,-84.14615986,36263,2,6,2,5,2,4,3,1,2,18,1,2,7,12,2,14,2,9,6
984,21051,Clay,Kentucky,37.16451126,-83.712575,19901,10,6,2,7,2,4,3,1,2,4,17,18,3,3,5,12,8,6,10
985,21053,Clinton,Kentucky,36.72581156,-85.13377529,10218,3,2,6,2,3,2,1,2,2,17,2,12,1,5,11,4,3,7,5
986,21055,Crittenden,Kentucky,37.35839237,-88.0882609,8806,3,2,6,2,3,2,1,2,2,17,2,12,1,5,11,4,3,7,5
987,21057,Cumberland,Kentucky,36.78926125,-85.39050034,6614,3,2,6,2,3,2,1,2,2,17,2,12,1,5,11,4,3,7,5
988,21059,Daviess,Kentucky,37.73028906,-87.0901948,101511,2,4,3,5,4,5,3,1,2,2,1,2,7,12,2,14,2,9,6
989,21061,Edmonson,Kentucky,37.21218923,-86.23955613,12150,2,6,2,7,2,4,3,1,2,18,17,18,3,12,2,14,2,9,6
990,21063,Elliott,Kentucky,38.11624059,-83.09771563,7517,3,6,6,2,3,2,1,2,2,17,14,12,1,5,11,4,3,7,10
991,21065,Estill,Kentucky,37.69241417,-83.95956369,14106,2,6,2,7,3,2,1,2,2,8,14,12,9,3,6,14,2,9,6
992,21067,Fayette,Kentucky,38.0368225,-84.45576892,323152,9,4,4,1,4,5,2,1,1,2,16,6,2,4,7,6,12,11,2
993,21069,Fleming,Kentucky,38.36758311,-83.69657514,14581,3,6,6,2,3,2,1,2,2,17,14,12,1,5,11,4,3,7,10
994,21071,Floyd,Kentucky,37.56213922,-82.74750924,35589,2,6,2,7,2,4,3,2,2,17,14,12,10,3,11,14,3,9,10
995,21073,Franklin,Kentucky,38.2379395,-84.87962551,50991,2,5,3,5,4,5,3,1,2,18,1,2,7,12,2,14,2,9,6
996,21075,Fulton,Kentucky,36.55238827,-89.20140068,5969,2,5,2,5,3,2,1,2,2,18,1,2,10,12,2,14,2,9,6
997,21077,Gallatin,Kentucky,38.75398691,-84.8558382,8869,2,5,3,5,4,5,3,1,2,18,1,2,7,12,2,14,2,11,6
998,21079,Garrard,Kentucky,37.6388668,-84.53289319,17666,2,6,2,7,2,4,3,1,2,18,14,13,9,3,6,14,2,9,6
999,21081,Grant,Kentucky,38.64962758,-84.62415957,25069,3,2,6,2,3,2,1,2,2,15,2,9,10,5,11,4,3,7,5
1000,21083,Graves,Kentucky,36.72292505,-88.65143315,37266,2,6,2,7,2,4,3,1,2,10,9,17,9,7,6,3,8,9,6
1001,21085,Grayson,Kentucky,37.46231118,-86.34248968,26427,2,6,2,7,2,4,3,1,2,8,9,13,9,3,6,14,7,9,6
1002,21087,Green,Kentucky,37.26484328,-85.5540745,10941,3,2,6,2,3,2,1,2,2,17,2,12,1,5,11,4,3,7,10
1003,21089,Greenup,Kentucky,38.54332505,-82.9215658,35098,2,5,3,5,4,5,3,1,2,18,1,2,7,12,2,14,2,9,6
1004,21091,Hancock,Kentucky,37.83766422,-86.78280584,8722,2,6,2,7,2,4,3,2,2,18,1,2,7,12,2,14,2,9,6
1005,21093,Hardin,Kentucky,37.6976111,-85.96319251,110958,9,4,3,5,4,5,3,1,2,2,9,13,9,9,6,8,7,4,2
1006,21095,Harlan,Kentucky,36.85699301,-83.21899516,26010,2,6,2,2,3,2,1,2,2,8,14,12,10,3,6,14,2,9,6
1007,21097,Harrison,Kentucky,38.44188174,-84.32869741,18886,2,5,3,5,4,4,3,1,2,18,1,2,7,12,2,14,2,9,6
1008,21099,Hart,Kentucky,37.29943898,-85.88461055,19035,10,6,2,7,3,2,1,2,2,17,14,12,1,5,11,4,3,6,10
1009,21101,Henderson,Kentucky,37.79344553,-87.57392021,45210,9,4,3,5,4,5,3,1,2,2,9,13,9,9,6,8,7,4,2
